,cityID,date,time,city,country,continent,latitude,longitude,temperature,humidity,windSpeed,cloudiness
0,3372472,2018-06-12,04:04,Vila Franca do Campo,PT,Europe,37.72,-25.43,66.2,93,3.36,40
1,1267635,2018-06-12,04:04,Karwar,IN,Asia,14.8,74.13,72.3,100,2.48,92
2,2017155,2018-06-12,04:04,Saskylakh,RU,Europe,71.97,114.09,60.6,66,9.42,0
3,2409215,2018-06-12,04:04,Mattru,SL,Africa,7.62,-11.83,75.0,99,2.82,88
4,2020591,2018-06-12,04:04,Magdagachi,RU,Europe,53.45,125.8,68.25,65,3.94,64
5,964432,2018-06-12,04:04,Port Alfred,ZA,Africa,-33.59,26.89,57.45,100,7.18,0
6,4252975,2018-06-12,04:04,Barrow,US,North America,39.51,-90.4,74.82,94,8.05,40
7,2206939,2018-06-12,04:04,Bluff,NZ,Oceania,-46.6,168.33,49.35,100,24.18,48
8,1106677,2018-06-12,04:05,Bambous Virieux,MU,Africa,-20.34,57.76,69.8,88,6.93,75
9,2122090,2018-06-12,04:05,Pevek,RU,Europe,69.7,170.27,46.92,69,5.17,8
10,2126123,2018-06-12,04:05,Chokurdakh,RU,Europe,70.62,147.9,41.79,86,6.96,0
11,525426,2018-06-12,04:05,Sobolevo,RU,Europe,54.43,31.9,63.3,62,14.23,88
12,2013727,2018-06-12,04:05,Vanavara,RU,Europe,60.35,102.28,72.57,67,3.6,76
13,2191562,2018-06-12,04:05,Dunedin,NZ,Oceania,-45.87,170.5,43.41,89,10.98,68
14,4893171,2018-06-12,04:05,Freeport,US,North America,42.3,-89.62,66.72,88,4.7,90
15,2074865,2018-06-12,04:05,Carnarvon,AU,Oceania,-24.87,113.63,64.65,98,14.79,0
16,308463,2018-06-12,04:05,Kayseri,TR,Asia,38.73,35.48,57.2,71,4.7,0
17,2037485,2018-06-12,04:05,Erenhot,CN,Asia,43.65,111.97,70.77,71,7.18,24
18,2729907,2018-06-12,04:05,Longyearbyen,SJ,Europe,78.22,15.64,32.0,99,5.82,75
19,5059429,2018-06-12,04:05,Grand Forks,US,North America,47.91,-97.06,52.93,100,5.82,1
20,5855927,2018-06-12,04:05,Hilo,US,North America,19.71,-155.08,73.22,69,8.05,90
21,512255,2018-06-12,04:05,Shirokiy,RU,Europe,53.87,39.17,57.9,57,12.66,68
22,2160413,2018-06-12,04:05,Leeton,AU,Oceania,-34.55,146.4,56.55,100,13.89,56
23,2121385,2018-06-12,04:05,Severo-Kurilsk,RU,Europe,50.68,156.12,41.43,95,11.65,88
24,610298,2018-06-12,04:05,Beyneu,KZ,Asia,45.32,55.19,64.56,27,5.95,0
25,5354943,2018-06-12,04:05,Half Moon Bay,US,North America,37.46,-122.43,70.59,67,23.04,20
26,935221,2018-06-12,04:05,Saint-Paul,RE,Africa,-21.01,55.27,68.94,64,8.05,20
27,5880568,2018-06-12,04:05,Bethel,US,North America,60.79,-161.76,64.4,31,14.99,1
28,3833367,2018-06-12,04:05,Ushuaia,AR,South America,-54.81,-68.31,22.98,100,3.38,64
29,4035715,2018-06-12,04:05,Avarua,CK,Oceania,-21.21,-159.78,75.2,57,5.82,40
30,1633419,2018-06-12,04:05,Padang,ID,Asia,-0.92,100.36,83.55,100,0.81,20
31,3874787,2018-06-12,04:05,Punta Arenas,CL,South America,-53.16,-70.91,32.0,100,6.93,0
32,6170031,2018-06-12,04:05,Tuktoyaktuk,CA,North America,69.44,-133.03,33.8,80,8.05,75
33,5469841,2018-06-12,04:05,Grants,US,North America,35.15,-107.85,73.4,9,4.7,1
34,2110227,2018-06-12,04:05,Butaritari,KI,Oceania,3.07,172.79,84.18,100,6.85,44
35,1486910,2018-06-12,04:05,Komsomolskiy,RU,Europe,67.55,63.78,34.14,98,7.85,20
36,503428,2018-06-12,04:05,Konevo,RU,Europe,56.45,43.2,53.6,76,11.18,75
37,1634614,2018-06-12,04:05,Nabire,ID,Asia,-3.36,135.5,76.53,89,2.71,36
38,3625710,2018-06-12,04:05,Upata,VE,South America,8.02,-62.41,74.55,85,6.85,44
39,2122293,2018-06-12,04:05,Ozernovskiy,RU,Europe,51.5,156.52,47.28,86,8.41,56
40,2075265,2018-06-12,04:05,Busselton,AU,Oceania,-33.64,115.35,63.75,100,16.13,24
41,5009004,2018-06-12,04:05,Sault Sainte Marie,CA,North America,46.49,-84.36,58.37,48,3.36,1
42,4030556,2018-06-12,04:05,Rikitea,PF,Oceania,-23.12,-134.97,73.74,100,19.71,76
43,1260206,2018-06-12,04:05,Pasighat,IN,Asia,28.06,95.33,71.04,100,1.92,100
44,2427336,2018-06-12,04:05,Moussoro,TD,Africa,13.64,16.49,72.3,50,4.16,0
45,3366880,2018-06-12,04:05,Hermanus,ZA,Africa,-34.42,19.24,37.92,78,3.15,0
46,3448903,2018-06-12,04:05,Sao Joao da Barra,BR,South America,-21.64,-41.05,75.27,96,25.3,0
47,3024035,2018-06-12,04:05,Concarneau,FR,Europe,47.88,-3.92,57.79,87,8.05,0
48,2094342,2018-06-12,04:05,Kavieng,PG,Oceania,-2.57,150.8,82.74,100,3.15,48
49,546105,2018-06-12,04:05,Nikolskoye,RU,Europe,59.7,30.79,60.8,82,13.42,0
50,2137773,2018-06-12,04:05,Vao,NC,Oceania,-22.67,167.48,72.12,100,7.52,0
51,554830,2018-06-12,04:05,Izhma,RU,Europe,65.01,53.91,46.65,68,3.6,0
52,964420,2018-06-12,04:05,Port Elizabeth,ZA,Africa,-33.92,25.57,48.2,93,2.24,0
53,2126199,2018-06-12,04:05,Cherskiy,RU,Europe,68.75,161.3,59.16,56,6.62,0
54,2015306,2018-06-12,04:05,Tiksi,RU,Europe,71.64,128.87,50.34,73,7.96,0
55,2123814,2018-06-12,04:05,Leningradskiy,RU,Europe,69.38,178.42,39.45,77,4.27,0
56,1015776,2018-06-12,04:05,Bredasdorp,ZA,Africa,-34.53,20.04,48.2,87,5.82,0
57,3440777,2018-06-12,04:05,Rocha,UY,South America,-34.48,-54.34,53.94,98,8.41,68
58,286245,2018-06-12,04:05,Sur,OM,Asia,22.57,59.53,91.56,74,10.42,0
59,4032243,2018-06-12,04:05,Vaini,TO,Oceania,-21.2,-175.2,82.4,74,6.93,40
60,4267710,2018-06-12,04:05,Sitka,US,North America,37.17,-99.65,86.25,41,5.84,0
61,6541069,2018-06-12,04:05,Tolentino,IT,Europe,43.21,13.28,71.6,73,5.82,0
62,3471451,2018-06-12,04:05,Arraial do Cabo,BR,South America,-22.97,-42.02,73.29,89,20.04,24
63,3356832,2018-06-12,04:05,Henties Bay,NA,Africa,-22.12,14.28,62.4,71,13.44,0
64,2126682,2018-06-12,04:05,Bilibino,RU,Europe,68.06,166.44,70.86,24,3.15,0
65,1179758,2018-06-12,04:05,Diplo,PK,Asia,24.47,69.59,86.34,74,17.13,44
66,2264557,2018-06-12,04:05,Ponta do Sol,PT,Europe,32.67,-17.1,68.0,72,9.17,75
67,1067565,2018-06-12,04:05,Beloha,MG,Africa,-25.17,45.06,63.75,87,9.75,8
68,2064735,2018-06-12,04:05,Nhulunbuy,AU,Oceania,-12.18,136.78,82.4,65,12.75,40
69,2012735,2018-06-12,04:05,Zaigrayevo,RU,Europe,51.83,108.27,73.4,46,4.47,20
70,2108502,2018-06-12,04:05,Honiara,SB,Oceania,-9.43,159.96,86.0,70,5.82,20
71,6167817,2018-06-12,04:05,Torbay,CA,North America,47.66,-52.73,35.6,95,6.93,75
72,5069802,2018-06-12,04:05,Hastings,US,North America,40.59,-98.39,67.51,83,6.93,1
73,934322,2018-06-12,04:05,Mahebourg,MU,Africa,-20.41,57.7,69.8,88,6.93,75
74,5367788,2018-06-12,04:05,Lompoc,US,North America,34.64,-120.46,56.14,100,8.05,90
75,2077963,2018-06-12,04:05,Albany,AU,Oceania,-35.02,117.88,61.95,67,15.46,0
76,5969025,2018-06-12,04:05,Haines Junction,CA,North America,60.75,-137.51,45.66,47,5.95,0
77,553725,2018-06-12,04:05,Kamenka,RU,Europe,53.19,44.05,54.57,54,9.98,48
78,3354077,2018-06-12,04:05,Opuwo,NA,Africa,-18.06,13.84,39.72,57,3.38,0
79,3393922,2018-06-12,04:05,Nisia Floresta,BR,South America,-6.09,-35.21,73.4,83,8.05,20
80,3421193,2018-06-12,04:05,Paamiut,GL,North America,61.99,-49.67,34.95,100,2.59,80
81,3374083,2018-06-12,04:05,Bathsheba,BB,North America,13.22,-59.52,78.8,83,17.22,40
82,3580661,2018-06-12,04:05,George Town,KY,North America,19.29,-81.37,82.4,83,6.93,20
83,6185377,2018-06-12,04:05,Yellowknife,CA,North America,62.45,-114.38,46.4,93,16.11,90
84,2036033,2018-06-12,04:05,Liuhe,CN,Asia,42.28,125.73,68.07,73,3.15,36
85,1785961,2018-06-12,04:05,Heihe,CN,Asia,33.22,106.45,75.72,59,2.93,80
86,3577933,2018-06-12,04:05,Chateaubelair,VC,North America,13.28,-61.25,82.4,74,23.04,20
87,3424607,2018-06-12,04:05,Tasiilaq,GL,North America,65.61,-37.64,37.4,59,11.41,92
88,1737486,2018-06-12,04:05,Bintulu,MY,Asia,3.17,113.03,87.8,74,4.7,75
89,2395182,2018-06-12,04:05,Bembereke,BJ,Africa,10.23,2.66,77.7,78,7.63,36
90,2092164,2018-06-12,04:05,Lorengau,PG,Oceania,-2.02,147.27,84.45,100,7.85,24
91,4021858,2018-06-12,04:05,Guerrero Negro,MX,North America,27.97,-114.04,68.52,64,11.32,20
92,935215,2018-06-12,04:05,Saint-Philippe,RE,Africa,-21.36,55.77,68.86,43,9.17,0
93,4020109,2018-06-12,04:05,Atuona,PF,Oceania,-9.8,-139.03,79.77,100,8.63,20
94,3948613,2018-06-12,04:05,Acari,PE,South America,-15.44,-74.62,47.91,83,2.04,0
95,1507390,2018-06-12,04:05,Dikson,RU,Europe,73.51,80.55,34.32,90,8.3,0
96,89113,2018-06-12,04:05,Ajdabiya,LY,Africa,30.75,20.22,67.62,66,5.73,36
97,3361934,2018-06-12,04:05,Saldanha,ZA,Africa,-33.01,17.94,46.4,87,1.12,0
98,3369157,2018-06-12,04:05,Cape Town,ZA,Africa,-33.93,18.42,51.8,71,9.17,0
99,6182212,2018-06-12,04:05,Williams Lake,CA,North America,52.13,-122.14,55.4,30,13.87,75
100,3652764,2018-06-12,04:05,Puerto Ayora,EC,South America,-0.74,-90.35,71.85,100,14.23,8
101,3463237,2018-06-12,04:05,Florianopolis,BR,South America,-27.6,-48.55,71.6,83,3.36,75
102,1065158,2018-06-12,04:05,Farafangana,MG,Africa,-22.82,47.83,72.66,100,8.08,92
103,463655,2018-06-12,04:05,Zenzeli,RU,Europe,45.92,47.05,61.5,46,10.76,0
104,3147822,2018-06-12,04:05,Gravdal,NO,Europe,59.79,5.78,50.0,87,11.41,75
105,3372707,2018-06-12,04:05,Ribeira Grande,PT,Europe,38.52,-28.7,69.42,97,6.62,24
106,3374210,2018-06-12,04:05,Sao Filipe,CV,Africa,14.9,-24.5,71.13,100,15.79,0
107,3355672,2018-06-12,04:05,Luderitz,NA,Africa,-26.65,15.16,57.72,58,6.4,0
108,6111862,2018-06-12,04:05,Port Hardy,CA,North America,50.7,-127.42,57.2,62,8.05,40
109,5924351,2018-06-12,04:05,Clyde River,CA,North America,70.47,-68.59,28.4,92,6.93,1
110,2063042,2018-06-12,04:05,Port Hedland,AU,Oceania,-20.31,118.58,80.6,34,12.75,0
111,3370903,2018-06-12,04:05,Jamestown,SH,Africa,-15.94,-5.72,68.52,100,4.94,64
112,119505,2018-06-12,04:05,Alvand,IR,Asia,36.19,50.06,60.8,87,4.7,20
113,1489853,2018-06-12,04:05,Tazovskiy,RU,Europe,67.47,78.7,54.12,90,11.32,56
114,1513087,2018-06-12,04:05,Nurota,UZ,Asia,40.56,65.69,80.6,21,2.24,0
115,4034551,2018-06-12,04:05,Faanui,PF,Oceania,-16.48,-151.75,79.14,100,14.79,8
116,1696482,2018-06-12,04:05,Pagudpud,PH,Asia,18.56,120.79,80.6,94,11.41,75
117,5848280,2018-06-12,04:05,Kapaa,US,North America,22.08,-159.32,79.61,74,16.11,20
118,6071421,2018-06-12,04:05,Meadow Lake,CA,North America,54.13,-108.44,46.92,96,17.25,92
119,3374346,2018-06-12,04:05,Ponta do Sol,CV,Africa,17.2,-25.09,70.14,100,18.03,80
120,2136825,2018-06-12,04:05,Isangel,VU,Oceania,-19.55,169.27,75.27,100,6.62,24
121,779330,2018-06-12,04:05,Kautokeino,NO,Europe,69.01,23.04,37.02,99,5.39,88
122,1812805,2018-06-12,04:05,Dinghai,CN,Asia,26.28,119.79,86.0,58,8.95,0
123,2163355,2018-06-12,04:05,Hobart,AU,Oceania,-42.88,147.33,48.2,100,5.82,75
124,2964782,2018-06-12,04:05,Dingle,IE,Europe,52.14,-10.27,56.46,100,9.98,80
125,1730622,2018-06-12,04:05,Anito,PH,Asia,12.45,125.29,86.79,95,8.97,20
126,1006984,2018-06-12,04:05,East London,ZA,Africa,-33.02,27.91,57.2,47,8.05,0
127,2093685,2018-06-12,04:05,Kokopo,PG,Oceania,-4.34,152.27,81.84,100,10.65,64
128,6050066,2018-06-12,04:05,La Ronge,CA,North America,55.1,-105.3,55.4,66,16.11,75
129,1337606,2018-06-12,04:05,Eydhafushi,MV,Asia,5.1,73.07,79.95,100,12.88,68
130,5554428,2018-06-12,04:05,Ketchikan,US,North America,55.34,-131.65,54.18,66,12.75,75
131,3443061,2018-06-12,04:05,Chuy,UY,South America,-33.69,-53.46,58.08,97,13.89,68
132,1049861,2018-06-12,04:05,Chibuto,MZ,Africa,-24.69,33.53,63.84,95,3.04,92
133,3896218,2018-06-12,04:05,Castro,CL,South America,-42.48,-73.76,29.55,100,2.59,12
134,6148373,2018-06-12,04:05,Sioux Lookout,CA,North America,50.1,-91.92,66.2,77,8.05,75
135,2014833,2018-06-12,04:05,Tura,RU,Europe,64.27,100.22,70.14,58,3.94,20
136,1861835,2018-06-12,04:05,Iizuka,JP,Asia,33.62,130.66,73.49,64,8.05,75
137,3580477,2018-06-12,04:05,West Bay,KY,North America,19.37,-81.42,82.4,83,6.93,20
138,5697939,2018-06-12,04:05,North Platte,US,North America,41.12,-100.77,60.8,82,3.36,1
139,2400547,2018-06-12,04:05,Gamba,GA,Africa,-2.72,10.02,74.64,100,2.26,0
140,933995,2018-06-12,04:05,Souillac,MU,Africa,-20.52,57.52,69.8,88,6.93,75
141,218229,2018-06-12,04:05,Bongandanga,CD,Africa,1.51,21.07,75.54,70,2.71,8
142,5387494,2018-06-12,04:05,Ridgecrest,US,North America,35.62,-117.67,96.8,7,10.29,1
143,2180815,2018-06-12,04:05,Tuatapere,NZ,Oceania,-46.13,167.69,46.11,100,3.04,56
144,4031574,2018-06-12,04:05,Provideniya,RU,Europe,64.42,-173.23,37.74,100,4.16,8
145,2030065,2018-06-12,04:05,Mandalgovi,MN,Asia,45.76,106.27,65.37,44,14.23,0
146,779350,2018-06-12,04:05,Karasjok,NO,Europe,69.47,25.52,39.2,69,10.29,75
147,2137748,2018-06-12,04:05,Voh,NC,Oceania,-20.95,164.69,72.75,99,7.18,0
148,2112802,2018-06-12,04:05,Hasaki,JP,Asia,35.73,140.83,69.8,88,9.17,75
149,2022572,2018-06-12,04:05,Khatanga,RU,Europe,71.98,102.47,64.02,50,7.74,20
150,4407665,2018-06-12,04:05,Kodiak,US,North America,39.95,-94.76,68.0,94,8.05,75
151,3985168,2018-06-12,04:05,San Patricio,MX,North America,19.22,-104.7,73.65,100,13.44,92
152,5150529,2018-06-12,04:05,Cleveland,US,North America,41.51,-81.69,64.4,77,6.93,1
153,2163701,2018-06-12,04:05,Healesville,AU,Oceania,-37.65,145.52,59.88,72,18.34,40
154,2629833,2018-06-12,04:05,Husavik,IS,Europe,66.04,-17.34,46.4,87,5.82,90
155,241131,2018-06-12,04:05,Victoria,SC,Africa,-4.62,55.45,78.8,83,9.17,75
156,2071860,2018-06-12,04:05,Esperance,AU,Oceania,-33.86,121.89,58.98,70,16.24,0
157,4569298,2018-06-12,04:05,Anderson,US,North America,34.51,-82.65,71.37,78,10.29,40
158,1726705,2018-06-12,04:05,Barcelona,PH,Asia,12.87,124.14,86.88,87,15.79,12
159,3441894,2018-06-12,04:05,Maldonado,UY,South America,-34.91,-54.96,55.4,93,4.7,90
160,3894426,2018-06-12,04:05,Coihaique,CL,South America,-45.58,-72.07,18.37,92,2.24,0
161,1282256,2018-06-12,04:05,Hithadhoo,MV,Asia,-0.6,73.08,83.1,100,11.21,48
162,5000500,2018-06-12,04:05,Madison Heights,US,North America,42.49,-83.11,68.16,37,4.7,90
163,1790840,2018-06-12,04:05,Wuzhou,CN,Asia,23.48,111.3,76.62,100,3.27,92
164,2067089,2018-06-12,04:05,Maningrida,AU,Oceania,-12.05,134.23,81.57,71,14.12,0
165,2396853,2018-06-12,04:05,Omboue,GA,Africa,-1.57,9.26,77.7,100,4.83,56
166,3839479,2018-06-12,04:05,Rafaela,AR,South America,-31.25,-61.49,54.93,90,7.29,92
167,5380437,2018-06-12,04:05,Pacific Grove,US,North America,36.62,-121.92,63.36,40,3.36,1
168,2098329,2018-06-12,04:05,Daru,PG,Oceania,-9.07,143.21,79.95,87,15.68,68
169,6165406,2018-06-12,04:05,Thompson,CA,North America,55.74,-97.86,57.2,93,3.36,75
170,1856068,2018-06-12,04:05,Nago,JP,Asia,26.59,127.98,81.43,61,13.87,40
171,2413419,2018-06-12,04:05,Gunjur,GM,Africa,13.18,-16.76,73.4,88,3.36,75
172,1738050,2018-06-12,04:05,Miri,MY,Asia,4.41,114.01,89.6,62,5.82,75
173,2985947,2018-06-12,04:05,Porto-Vecchio,FR,Europe,41.59,9.28,68.02,94,13.87,90
174,361661,2018-06-12,04:05,Akhmim,EG,Africa,26.56,31.74,70.95,32,5.61,0
175,2654970,2018-06-12,04:05,Brae,GB,Europe,60.4,-1.35,51.8,87,5.82,92
176,5959803,2018-06-12,04:05,Capreol,CA,North America,46.71,-80.92,60.8,51,4.7,5
177,4732862,2018-06-12,04:05,Nome,US,North America,30.04,-94.42,79.7,83,3.36,1
178,2630299,2018-06-12,04:05,Hofn,IS,Europe,64.25,-15.21,46.2,100,10.54,88
179,5847411,2018-06-12,04:05,Kahului,US,North America,20.89,-156.47,80.47,65,23.04,40
180,2181625,2018-06-12,04:05,Te Anau,NZ,Oceania,-45.41,167.72,43.77,95,2.82,36
181,1850144,2018-06-12,04:05,Nishihara,JP,Asia,35.74,139.53,73.65,73,4.7,90
182,3385899,2018-06-12,04:05,Tutoia,BR,South America,-2.76,-42.27,78.78,78,9.53,12
183,1835848,2018-06-12,04:05,Seoul,KR,Asia,37.57,126.98,75.18,69,4.7,40
184,3981460,2018-06-12,04:05,Coahuayana,MX,North America,18.62,-100.35,68.16,93,2.37,88
185,496285,2018-06-12,04:05,Severodvinsk,RU,Europe,64.56,39.82,48.2,100,6.71,90
186,946058,2018-06-12,04:05,Umtata,ZA,Africa,-31.59,28.78,42.8,87,3.36,0
187,3831208,2018-06-12,04:05,Qaanaaq,GL,North America,77.48,-69.36,32.25,96,6.17,36
188,2411397,2018-06-12,04:05,Georgetown,SH,Africa,-7.93,-14.42,75.2,60,9.17,20
189,6089245,2018-06-12,04:05,Norman Wells,CA,North America,65.28,-126.83,46.4,75,9.17,90
190,3424934,2018-06-12,04:05,Saint-Pierre,PM,North America,46.77,-56.17,44.67,88,16.24,68
191,2206900,2018-06-12,04:05,Westport,NZ,Oceania,-41.75,171.6,52.5,70,6.17,92
192,108410,2018-06-12,04:06,Riyadh,SA,Asia,24.63,46.72,80.6,12,6.93,0
193,107304,2018-06-12,04:06,Buraydah,SA,Asia,26.33,43.97,78.8,36,8.05,0
194,3662489,2018-06-12,04:06,Santa Isabel do Rio Negro,BR,South America,-0.41,-65.02,74.1,99,3.94,20
195,2155415,2018-06-12,04:06,New Norfolk,AU,Oceania,-42.78,147.06,48.2,100,5.82,75
196,1215502,2018-06-12,04:06,Banda Aceh,ID,Asia,5.56,95.32,85.89,69,3.71,80
197,3466165,2018-06-12,04:06,Cidreira,BR,South America,-30.17,-50.22,64.74,92,4.27,56
198,2155562,2018-06-12,04:06,Nelson Bay,AU,Oceania,-32.72,152.14,60.8,77,2.24,0
199,2654728,2018-06-12,04:06,Bridlington,GB,Europe,54.08,-0.19,54.9,100,5.82,76
200,3833062,2018-06-12,04:06,Venado Tuerto,AR,South America,-33.75,-61.97,50.43,100,8.63,88
201,2090021,2018-06-12,04:06,Namatanai,PG,Oceania,-3.66,152.44,82.83,100,6.62,68
202,1789647,2018-06-12,04:06,Xichang,CN,Asia,27.88,102.25,59.07,100,1.7,92
203,2070998,2018-06-12,04:06,Geraldton,AU,Oceania,-28.77,114.6,62.6,77,8.05,75
204,921786,2018-06-12,04:06,Mitsamiouli,KM,Africa,-11.38,43.28,75.2,83,5.82,20
205,1784055,2018-06-12,04:06,Zhuanghe,CN,Asia,39.7,122.97,69.42,86,9.08,0
206,3694183,2018-06-12,04:06,Pacanga,PE,South America,-7.17,-79.49,64.4,88,17.22,75
207,1516048,2018-06-12,04:06,Hovd,MN,Asia,48.01,91.64,78.15,18,4.05,24
208,777019,2018-06-12,04:06,Vardo,NO,Europe,70.37,31.11,37.4,74,8.05,75
209,286621,2018-06-12,04:06,Salalah,OM,Asia,17.01,54.1,82.4,94,3.36,90
210,5261457,2018-06-12,04:06,Madison,US,North America,43.07,-89.38,66.65,82,6.93,90
211,1524801,2018-06-12,04:06,Shieli,KZ,Asia,44.18,66.74,79.32,23,4.16,12
212,2016412,2018-06-12,04:06,Smidovich,RU,Europe,48.6,133.81,73.2,43,6.17,20
213,3904666,2018-06-12,04:06,San Jose,BO,South America,-17.94,-63.35,73.4,94,17.22,12
214,3137469,2018-06-12,04:06,Sorland,NO,Europe,67.67,12.69,44.6,87,5.82,75
215,5392368,2018-06-12,04:06,San Marcos,US,North America,33.14,-117.17,68.16,93,4.7,20
216,1120985,2018-06-12,04:06,Zaranj,AF,Asia,30.95,61.86,89.6,17,26.4,40
217,3652567,2018-06-12,04:06,San Cristobal,EC,South America,-1.02,-79.44,62.58,100,1.14,100
218,5233053,2018-06-12,04:06,Yankton,US,North America,42.87,-97.4,68.0,88,9.17,1
219,5528450,2018-06-12,04:06,Plainview,US,North America,34.18,-101.71,83.41,51,11.41,1
220,3645532,2018-06-12,04:06,Ciudad Bolivar,VE,South America,8.12,-63.55,79.77,74,11.88,0
221,2027296,2018-06-12,04:06,Aykhal,RU,Europe,65.95,111.51,63.03,78,3.15,24
222,7647007,2018-06-12,04:06,San Carlos de Bariloche,AR,South America,-41.13,-71.31,15.8,92,8.05,20
223,3571913,2018-06-12,04:06,Marsh Harbour,BS,North America,26.54,-77.06,81.03,100,11.77,24
224,4033356,2018-06-12,04:06,Tiarei,PF,Oceania,-17.53,-149.33,77.0,57,17.22,40
225,151599,2018-06-12,04:06,Ngudu,TZ,Africa,-2.97,33.34,57.9,77,11.99,0
226,3350246,2018-06-12,04:06,Catumbela,AO,Africa,-12.43,13.55,54.75,83,2.37,0
227,1056899,2018-06-12,04:06,Sambava,MG,Africa,-14.27,50.17,76.53,100,16.02,80
228,2016216,2018-06-12,04:06,Sosnovo-Ozerskoye,RU,Europe,52.53,111.54,64.74,81,4.72,44
229,3416888,2018-06-12,04:06,Grindavik,IS,Europe,63.84,-22.43,44.6,87,3.36,75
230,3573061,2018-06-12,04:06,Saint George,BM,North America,32.38,-64.68,78.8,83,20.8,75
231,523392,2018-06-12,04:06,Naryan-Mar,RU,Europe,67.67,53.09,40.62,77,10.2,80
232,654363,2018-06-12,04:06,Kankaanpaa,FI,Europe,61.8,22.42,55.4,54,5.82,0
233,2094027,2018-06-12,04:06,Kieta,PG,Oceania,-6.22,155.63,82.38,91,5.95,64
234,2508813,2018-06-12,04:06,Adrar,DZ,Africa,27.87,-0.29,78.8,9,5.82,0
235,3347762,2018-06-12,04:06,Lubango,AO,Africa,-14.92,13.49,47.46,81,2.71,0
236,149129,2018-06-12,04:06,Ushirombo,TZ,Africa,-3.47,31.9,56.28,71,4.38,0
237,3386213,2018-06-12,04:06,Touros,BR,South America,-5.2,-35.46,77.52,84,13.11,80
238,3188763,2018-06-12,04:06,Trogir,HR,Europe,43.52,16.25,69.8,88,1.12,0
239,1861280,2018-06-12,04:06,Itoman,JP,Asia,26.12,127.67,81.73,61,13.87,40
240,1865309,2018-06-12,04:06,Katsuura,JP,Asia,33.93,134.5,72.68,88,12.75,75
241,2331005,2018-06-12,04:06,Malumfashi,NG,Africa,11.79,7.62,74.37,75,7.29,20
242,2132606,2018-06-12,04:06,Samarai,PG,Oceania,-10.62,150.67,77.88,100,12.1,24
243,3156980,2018-06-12,04:06,Floro,NO,Europe,61.6,5.03,51.01,71,16.11,20
244,3883457,2018-06-12,04:06,Lebu,CL,South America,-37.62,-73.65,47.01,100,2.71,0
245,2021188,2018-06-12,04:06,Kurumkan,RU,Europe,54.33,110.32,52.32,100,1.92,92
246,2013279,2018-06-12,04:06,Vostok,RU,Europe,46.45,135.83,62.67,55,2.82,24
247,4941383,2018-06-12,04:06,Kingston,US,North America,41.99,-70.72,53.15,76,5.82,1
248,3449847,2018-06-12,04:06,Santa Rita do Sapucai,BR,South America,-22.25,-45.7,54.66,88,3.27,56
249,1490256,2018-06-12,04:06,Talnakh,RU,Europe,69.49,88.39,50.88,81,13.67,68
250,2084442,2018-06-12,04:06,Vanimo,PG,Oceania,-2.67,141.3,81.3,100,4.5,80
251,1283285,2018-06-12,04:06,Jumla,NP,Asia,29.28,82.18,46.74,91,1.92,0
252,3374336,2018-06-12,04:06,Porto Novo,CV,Africa,17.02,-25.06,71.6,68,20.8,40
253,2172797,2018-06-12,04:06,Cairns,AU,Oceania,-16.92,145.77,78.8,57,9.17,20
254,2023469,2018-06-12,04:06,Markova,RU,Europe,52.21,104.21,75.2,41,4.47,0
255,3893629,2018-06-12,04:06,Coquimbo,CL,South America,-29.95,-71.34,46.4,87,4.7,0
256,1313479,2018-06-12,04:06,Loikaw,MM,Asia,19.67,97.21,71.04,100,9.53,92
257,2145554,2018-06-12,04:06,Ulladulla,AU,Oceania,-35.36,150.48,57.2,62,1.12,0
258,3980586,2018-06-12,04:06,Valparaiso,MX,North America,22.77,-103.57,58.62,99,1.92,92
259,3840300,2018-06-12,04:06,Presidencia Roque Saenz Pena,AR,South America,-26.79,-60.44,60.69,92,7.85,0
260,136256,2018-06-12,04:06,Dezful,IR,Asia,32.38,48.4,72.3,47,3.38,0
261,5983720,2018-06-12,04:06,Iqaluit,CA,North America,63.75,-68.52,35.6,69,9.17,20
262,2018735,2018-06-12,04:06,Nyurba,RU,Europe,63.29,118.35,72.48,33,3.71,0
263,5002344,2018-06-12,04:06,Monroe,US,North America,41.91,-83.4,66.72,77,6.93,90
264,4011743,2018-06-12,04:06,Constitucion,MX,North America,23.99,-104.67,62.6,100,11.41,90
265,2152668,2018-06-12,04:06,Portland,AU,Oceania,-33.35,149.98,50.34,89,7.4,44
266,3863379,2018-06-12,04:06,Mar del Plata,AR,South America,-46.43,-67.52,26.94,100,4.94,20
267,3575479,2018-06-12,04:06,Charlestown,KN,North America,17.13,-62.62,78.8,83,10.29,92
268,1259775,2018-06-12,04:06,Phillaur,IN,Asia,31.02,75.78,96.6,43,4.61,0
269,3136690,2018-06-12,04:06,Stokmarknes,NO,Europe,68.56,14.91,44.04,93,1.12,75
270,602150,2018-06-12,04:06,Umea,SE,Europe,63.83,20.26,50.0,76,4.7,0
271,3897347,2018-06-12,04:06,Calama,CL,South America,-22.46,-68.93,37.4,32,13.87,0
272,5563839,2018-06-12,04:06,Fortuna,US,North America,40.6,-124.16,57.76,93,9.17,1
273,3662342,2018-06-12,04:06,Sao Gabriel da Cachoeira,BR,South America,-0.13,-67.09,71.67,97,1.92,0
274,2025256,2018-06-12,04:06,Chumikan,RU,Europe,54.72,135.31,39.72,96,7.74,92
275,1185148,2018-06-12,04:06,Patiya,BD,Asia,22.3,91.98,80.6,94,13.87,90
276,2354265,2018-06-12,04:06,Toma,BF,Africa,12.76,-2.9,80.22,70,7.96,12
277,1538641,2018-06-12,04:06,Kedrovyy,RU,Europe,56.17,91.82,64.4,68,8.95,75
278,1651103,2018-06-12,04:06,Atambua,ID,Asia,-9.11,124.89,80.22,90,3.71,68
279,3347019,2018-06-12,04:06,Namibe,AO,Africa,-15.19,12.15,69.6,100,8.41,0
280,2134814,2018-06-12,04:06,Sola,VU,Oceania,-13.88,167.55,86.0,74,5.82,75
281,2154826,2018-06-12,04:06,Wonthaggi,AU,Oceania,-38.6,145.59,54.66,87,7.4,76
282,1012600,2018-06-12,04:06,Cradock,ZA,Africa,-32.16,25.62,29.37,61,4.05,0
283,6180550,2018-06-12,04:06,Whitehorse,CA,North America,60.72,-135.06,59.0,26,20.8,40
284,3532577,2018-06-12,04:06,Atotonilco el Grande,MX,North America,20.29,-98.67,62.67,95,0.92,92
285,3868633,2018-06-12,04:06,Vallenar,CL,South America,-28.58,-70.76,26.85,73,2.04,0
286,3423146,2018-06-12,04:06,Ilulissat,GL,North America,69.22,-51.1,33.8,86,3.36,0
287,1685422,2018-06-12,04:06,Sulangan,PH,Asia,11.14,123.72,86.61,97,8.86,12
288,1645875,2018-06-12,04:06,Curup,ID,Asia,-3.47,102.53,79.68,77,2.37,12
289,1226260,2018-06-12,04:06,Trincomalee,LK,Asia,8.58,81.23,83.73,72,18.7,48
290,1506268,2018-06-12,04:06,Gornopravdinsk,RU,Europe,60.06,69.92,56.91,67,4.27,76
291,1486321,2018-06-12,04:06,Yar-Sale,RU,Europe,66.83,70.83,36.57,93,4.27,12
292,1817240,2018-06-12,04:06,Baiyin,CN,Asia,36.55,104.13,77.0,23,2.24,0
293,2120048,2018-06-12,04:06,Ust-Nera,RU,Europe,64.57,143.24,51.6,51,2.48,44
294,2065594,2018-06-12,04:06,Mount Isa,AU,Oceania,-20.73,139.49,87.8,27,6.93,0
295,2267254,2018-06-12,04:06,Lagoa,PT,Europe,37.14,-8.45,60.8,82,6.93,0
296,3987224,2018-06-12,04:06,San Felipe,MX,North America,31.02,-114.84,80.85,94,7.52,0
297,1650233,2018-06-12,04:06,Banjar,ID,Asia,-7.37,108.54,78.96,77,4.38,68
298,3985710,2018-06-12,04:06,Cabo San Lucas,MX,North America,22.89,-109.91,87.8,31,13.87,40
299,486626,2018-06-12,04:06,Sukhodol,RU,Europe,53.9,51.22,50.97,64,4.5,0
300,6144195,2018-06-12,04:06,Senneterre,CA,North America,48.39,-77.24,53.6,58,4.7,1
301,3173878,2018-06-12,04:06,Marostica,IT,Europe,45.75,11.66,63.09,78,4.7,44
302,3398381,2018-06-12,04:06,Morros,BR,South America,-2.87,-44.04,77.0,94,4.7,0
303,543508,2018-06-12,04:06,Kovdor,RU,Europe,67.56,30.47,34.95,80,9.08,76
304,4015683,2018-06-12,04:06,Nicolas Bravo,MX,North America,24.39,-104.74,62.6,100,11.41,90
305,1803560,2018-06-12,04:06,Lingao,CN,Asia,19.91,109.69,90.12,74,16.13,44
306,2618795,2018-06-12,04:06,Klaksvik,FO,Europe,62.23,-6.59,46.4,93,8.05,64
307,86049,2018-06-12,04:06,Jalu,LY,Africa,29.03,21.55,75.72,40,9.64,68
308,3418910,2018-06-12,04:06,Upernavik,GL,North America,72.79,-56.15,30.45,97,12.55,68
309,730651,2018-06-12,04:06,Kaolinovo,BG,Europe,43.62,27.12,64.65,77,4.27,0
310,3541999,2018-06-12,04:06,Rodas,CU,North America,22.34,-80.56,72.32,88,6.93,92
311,1786657,2018-06-12,04:06,Yinchuan,CN,Asia,38.48,106.21,84.72,25,5.17,0
312,3870243,2018-06-12,04:06,Taltal,CL,South America,-25.41,-70.49,37.65,100,2.82,0
313,589578,2018-06-12,04:06,Parnu-Jaagupi,EE,Europe,58.61,24.51,60.24,88,4.72,80
314,487095,2018-06-12,04:06,Strunino,RU,Europe,56.37,38.59,59.61,69,13.67,92
315,988698,2018-06-12,04:06,Knysna,ZA,Africa,-34.04,23.05,59.0,51,3.36,0
316,2294915,2018-06-12,04:06,Takoradi,GH,Africa,4.89,-1.75,75.99,100,4.16,92
317,2746860,2018-06-12,04:06,Stadskanaal,NL,Europe,52.99,6.96,55.11,76,4.7,90
318,4984075,2018-06-12,04:06,Alpena,US,North America,45.06,-83.43,50.52,66,3.36,1
319,3938415,2018-06-12,04:06,Ilo,PE,South America,-17.65,-71.34,57.72,100,3.38,88
320,528248,2018-06-12,04:06,Mayskiy,RU,Europe,43.63,44.06,59.0,93,2.24,90
321,6541484,2018-06-12,04:06,Imperia,IT,Europe,43.88,8.02,69.8,68,5.82,20
322,612987,2018-06-12,04:06,Mestia,GE,Asia,43.04,42.73,34.41,91,0.36,36
323,5972762,2018-06-12,04:06,Hay River,CA,North America,60.82,-115.79,44.6,93,9.17,90
324,2216432,2018-06-12,04:06,Jadu,LY,Africa,31.95,12.03,77.07,33,5.39,0
325,64814,2018-06-12,04:06,Bandarbeyla,SO,Africa,9.49,50.81,79.86,79,23.62,8
326,1501377,2018-06-12,04:06,Kungurtug,RU,Europe,50.6,97.53,66.0,51,2.59,12
327,1274746,2018-06-12,04:06,Chandigarh,IN,Asia,30.72,76.76,94.44,41,2.15,0
328,501091,2018-06-12,04:06,Rovnoye,RU,Europe,50.78,46.06,55.2,74,2.93,0
329,1487272,2018-06-12,04:06,Verkhnyaya Sinyachikha,RU,Europe,57.98,61.67,52.32,74,3.71,44
330,2167426,2018-06-12,04:06,Emerald,AU,Oceania,-23.53,148.16,78.78,32,4.38,0
331,771506,2018-06-12,04:06,Grajewo,PL,Europe,53.65,22.46,54.03,90,5.39,24
332,5655240,2018-06-12,04:06,Great Falls,US,North America,47.5,-111.29,51.46,49,12.75,1
333,3932145,2018-06-12,04:06,Pisco,PE,South America,-13.71,-76.2,60.8,87,3.36,0
334,4033557,2018-06-12,04:06,Tautira,PF,Oceania,-17.73,-149.15,77.0,57,17.22,40
335,1071296,2018-06-12,04:06,Antalaha,MG,Africa,-14.9,50.28,73.02,96,10.31,92
336,5905393,2018-06-12,04:06,Bonavista,CA,North America,48.65,-53.11,38.55,95,14.23,0
337,5197079,2018-06-12,04:06,Lancaster,US,North America,40.04,-76.31,54.59,82,4.7,1
338,1058080,2018-06-12,04:06,Nosy Varika,MG,Africa,-20.58,48.53,68.88,100,5.95,68
339,1214488,2018-06-12,04:06,Meulaboh,ID,Asia,4.14,96.13,83.91,100,6.51,36
340,70979,2018-06-12,04:06,Sayyan,YE,Asia,15.17,44.32,63.66,57,1.7,92
341,4036284,2018-06-12,04:06,Alofi,NU,Oceania,-19.06,-169.92,80.6,69,8.05,75
342,2034615,2018-06-12,04:06,Tahe,CN,Asia,52.34,124.71,69.42,60,3.27,20
343,5935341,2018-06-12,04:06,Dauphin,CA,North America,51.15,-100.04,59.0,41,6.93,1
344,2822713,2018-06-12,04:06,Tholey,DE,Europe,49.48,7.03,58.62,100,4.7,75
345,4031742,2018-06-12,04:06,Egvekinot,RU,Europe,66.32,-179.17,46.2,86,0.69,0
346,1831112,2018-06-12,04:06,Kampot,KH,Asia,10.62,104.18,87.42,78,5.17,76
347,3620269,2018-06-12,04:06,Corinto,NI,North America,12.48,-87.17,75.54,91,3.49,68
348,3421765,2018-06-12,04:06,Nanortalik,GL,North America,60.14,-45.24,37.56,89,28.1,20
349,1254608,2018-06-12,04:06,Devgarh,IN,Asia,31.13,77.45,74.19,52,1.59,0
350,576172,2018-06-12,04:06,Alekseyevskoye,RU,Europe,45.2,43.58,66.54,65,8.19,8
351,2427949,2018-06-12,04:06,Melfi,TD,Africa,11.06,17.94,75.63,77,5.73,88
352,4167178,2018-06-12,04:06,Ormond Beach,US,North America,29.29,-81.06,74.46,94,3.36,40
353,1504382,2018-06-12,04:06,Kargasok,RU,Europe,59.06,80.87,68.79,58,3.27,12
354,3899695,2018-06-12,04:06,Ancud,CL,South America,-41.87,-73.83,31.71,79,1.92,32
355,742865,2018-06-12,04:06,Ä°zmit,TR,Asia,40.76,29.93,57.15,93,4.7,20
356,1267390,2018-06-12,04:06,Kavaratti,IN,Asia,10.57,72.64,84.0,99,23.85,64
357,1521315,2018-06-12,04:06,Lisakovsk,KZ,Asia,52.55,62.49,55.65,59,8.08,0
358,3628053,2018-06-12,04:06,San Juan de los Morros,VE,South America,9.91,-67.35,66.99,94,1.92,20
359,5072006,2018-06-12,04:06,Lincoln,US,North America,40.8,-96.67,72.99,68,11.54,40
360,2208248,2018-06-12,04:06,Kaitangata,NZ,Oceania,-46.28,169.85,46.38,82,18.7,68
361,5866063,2018-06-12,04:06,Kenai,US,North America,60.55,-151.26,61.68,45,14.99,75
362,500678,2018-06-12,04:06,Rudnya,RU,Europe,50.8,44.56,52.14,52,2.93,0
363,1852357,2018-06-12,04:06,Shimoda,JP,Asia,34.7,138.93,73.08,74,21.92,20
364,110690,2018-06-12,04:06,Abha,SA,Asia,18.22,42.5,67.15,45,2.71,0
365,1028434,2018-06-12,04:06,Quelimane,MZ,Africa,-17.88,36.89,61.5,94,3.15,64
366,2156643,2018-06-12,04:06,Mount Gambier,AU,Oceania,-37.83,140.78,55.2,94,11.1,88
367,3694112,2018-06-12,04:06,Paita,PE,South America,-5.09,-81.11,67.08,86,5.5,20
368,5882953,2018-06-12,04:06,Aklavik,CA,North America,68.22,-135.01,41.0,44,10.29,90
369,187585,2018-06-12,04:07,Marsabit,KE,Africa,2.34,37.99,67.8,73,9.75,8
370,3395998,2018-06-12,04:07,Macau,BR,South America,-5.11,-36.64,75.0,68,9.98,0
371,3395503,2018-06-12,04:07,Maraba,BR,South America,-5.35,-49.1,71.6,94,2.82,0
372,2399697,2018-06-12,04:07,Libreville,GA,Africa,0.39,9.45,77.0,88,10.29,20
373,708313,2018-06-12,04:07,Zatoka,UA,Europe,49.85,23.68,60.8,93,4.47,0
374,1258797,2018-06-12,04:07,Rajsamand,IN,Asia,25.06,73.89,88.05,47,16.13,0
375,2669047,2018-06-12,04:07,Timra,SE,Europe,62.49,17.33,50.0,57,16.11,0
376,2013921,2018-06-12,04:07,Ust-Kuyga,RU,Europe,70.0,135.55,62.13,61,6.62,0
377,3939761,2018-06-12,04:07,Hualmay,PE,South America,-11.1,-77.61,55.65,98,2.15,36
378,2032614,2018-06-12,04:07,Baruun-Urt,MN,Asia,46.68,113.28,58.08,73,14.23,80
379,2021017,2018-06-12,04:07,Kysyl-Syr,RU,Europe,63.9,122.77,71.85,25,7.18,32
380,1255437,2018-06-12,04:07,Sundargarh,IN,Asia,22.12,84.04,79.05,100,6.62,48
381,3145580,2018-06-12,04:07,Aukra,NO,Europe,62.79,6.92,47.57,76,6.93,75
382,4167694,2018-06-12,04:07,Panama City,US,North America,30.16,-85.65,76.89,78,4.7,40
383,3401148,2018-06-12,04:07,Cururupu,BR,South America,-1.82,-44.87,77.52,87,5.84,12
384,3429594,2018-06-12,04:07,Reconquista,AR,South America,-29.14,-59.64,61.23,95,7.4,76
385,570508,2018-06-12,04:07,Knyaginino,RU,Europe,58.46,41.41,55.29,90,11.65,92
386,1797264,2018-06-12,04:07,Quzhou,CN,Asia,28.97,118.86,82.74,71,3.71,12
387,1794209,2018-06-12,04:07,Simao,CN,Asia,22.76,100.79,67.8,100,2.71,92
388,339219,2018-06-12,04:07,Dese,ET,Africa,11.13,39.63,54.3,79,1.14,8
389,3139597,2018-06-12,04:07,Sistranda,NO,Europe,63.73,8.83,44.6,93,8.05,75
390,2123979,2018-06-12,04:07,Kurilsk,RU,Europe,45.23,147.88,48.81,77,17.69,92
391,1519691,2018-06-12,04:07,Sarkand,KZ,Asia,45.41,79.91,73.11,72,4.05,24
392,1850345,2018-06-12,04:07,Toba,JP,Asia,34.47,136.83,77.0,65,18.34,20
393,3614835,2018-06-12,04:07,Barra Patuca,HN,North America,15.8,-84.28,80.04,98,7.63,48
394,4160023,2018-06-12,04:07,Jacksonville Beach,US,North America,30.29,-81.39,73.71,83,4.7,1
395,1623502,2018-06-12,04:07,Sabang,ID,Asia,1.17,120.82,84.45,100,4.27,12
396,1253972,2018-06-12,04:07,Udankudi,IN,Asia,8.43,78.03,81.3,85,15.57,56
397,1729564,2018-06-12,04:07,Bacolod,PH,Asia,10.68,122.95,89.67,59,12.66,12
398,103630,2018-06-12,04:07,Najran,SA,Asia,17.54,44.22,86.0,27,5.95,75
399,6138501,2018-06-12,04:07,Saint-Augustin,CA,North America,45.63,-73.98,59.13,71,3.36,75
400,3848950,2018-06-12,04:07,La Rioja,AR,South America,-29.41,-66.86,48.18,58,14.0,0
401,3439378,2018-06-12,04:07,Ayolas,PY,South America,-27.39,-56.84,63.75,100,4.72,92
402,1263967,2018-06-12,04:07,Manali,IN,Asia,32.25,77.19,24.6,100,1.81,0
403,3393692,2018-06-12,04:07,Itarema,BR,South America,-2.92,-39.92,75.72,85,11.43,0
404,2025099,2018-06-12,04:07,Dauriya,RU,Europe,49.93,116.85,69.33,73,13.89,44
405,3083955,2018-06-12,04:07,Swinoujscie,PL,Europe,53.91,14.25,53.6,87,6.93,75
406,6057856,2018-06-12,04:07,Liverpool,CA,North America,44.04,-64.71,49.62,88,10.31,0
407,2025456,2018-06-12,04:07,Chernyshevskiy,RU,Europe,63.01,112.47,65.73,39,3.38,48
408,2125711,2018-06-12,04:07,Esso,RU,Europe,55.93,158.7,36.3,98,3.04,92
409,2147756,2018-06-12,04:07,Swan Hill,AU,Oceania,-35.34,143.56,56.82,100,15.9,92
410,260210,2018-06-12,04:07,Keratea,GR,Europe,37.81,23.98,73.56,43,10.29,0
411,3424901,2018-06-12,04:07,Aasiaat,GL,North America,68.71,-52.87,36.39,90,4.05,0
412,3133895,2018-06-12,04:07,Tromso,NO,Europe,69.65,18.96,37.4,93,5.82,75
413,6113406,2018-06-12,04:07,Prince Rupert,CA,North America,54.32,-130.32,53.6,76,5.82,90
414,607610,2018-06-12,04:07,Zhanaozen,KZ,Asia,43.35,52.85,66.09,32,10.76,48
415,53654,2018-06-12,04:07,Mogadishu,SO,Africa,2.04,45.34,78.51,100,19.26,64
416,1491525,2018-06-12,04:07,Sokur,RU,Europe,55.21,83.32,69.8,60,2.24,0
417,1849876,2018-06-12,04:07,Tateyama,JP,Asia,36.66,137.31,71.6,73,12.75,75
418,1529484,2018-06-12,04:07,Hami,CN,Asia,42.84,93.51,91.02,22,5.39,36
419,6942803,2018-06-12,04:07,Caraquet,CA,North America,47.79,-64.94,42.8,81,3.36,5
420,1510689,2018-06-12,04:07,Baykit,RU,Europe,61.68,96.39,70.68,68,4.61,56
421,4468261,2018-06-12,04:07,Goldsboro,US,North America,35.38,-77.99,67.8,100,9.17,90
422,3573197,2018-06-12,04:07,Hamilton,BM,North America,32.3,-64.78,78.8,83,20.8,75
423,2374583,2018-06-12,04:07,Bubaque,GW,Africa,11.28,-15.83,79.05,100,9.98,48
424,1196292,2018-06-12,04:07,Lakshmipur,BD,Asia,22.94,90.83,77.7,100,10.42,92
425,1855540,2018-06-12,04:07,Naze,JP,Asia,28.37,129.48,80.6,61,11.41,40
426,3452483,2018-06-12,04:07,Prado,BR,South America,-17.34,-39.22,77.61,96,13.44,24
427,3460087,2018-06-12,04:07,Jardim,BR,South America,-21.48,-56.15,79.5,64,16.35,0
428,3664980,2018-06-12,04:07,Boa Vista,BR,South America,2.82,-60.67,77.0,94,4.7,75
429,3381428,2018-06-12,04:07,Iracoubo,GF,South America,5.48,-53.21,74.1,97,4.38,92
430,5563397,2018-06-12,04:07,Eureka,US,North America,40.8,-124.16,57.54,93,9.17,1
431,1337619,2018-06-12,04:07,Ugoofaaru,MV,Asia,5.67,73.0,79.95,100,12.88,68
432,4928354,2018-06-12,04:07,Winfield,US,North America,41.41,-87.28,69.1,100,9.19,90
433,746565,2018-06-12,04:07,Gorele,TR,Asia,41.03,39.0,73.4,64,4.7,0
434,6145951,2018-06-12,04:07,Shellbrook,CA,North America,53.22,-106.39,53.6,76,12.75,90
435,1182998,2018-06-12,04:07,Bela,PK,Asia,26.23,66.31,77.7,87,3.38,36
436,6320062,2018-06-12,04:07,Vila Velha,BR,South America,-3.71,-38.6,80.6,78,12.75,40
437,1276736,2018-06-12,04:07,Basti,IN,Asia,26.79,82.72,77.88,94,8.19,80
438,1800430,2018-06-12,04:07,Miyang,CN,Asia,24.4,103.44,68.97,93,6.62,92
439,986717,2018-06-12,04:07,Kruisfontein,ZA,Africa,-34.0,24.73,56.73,92,7.63,0
440,3576994,2018-06-12,04:07,Cockburn Town,TC,North America,21.46,-71.14,80.94,97,19.6,92
441,3691954,2018-06-12,04:07,Sechura,PE,South America,-5.56,-80.82,67.8,86,11.32,0
442,3664956,2018-06-12,04:07,Boca do Acre,BR,South America,-8.76,-67.39,75.63,87,2.15,20
443,490743,2018-06-12,04:07,Solvychegodsk,RU,Europe,61.33,46.92,50.07,76,10.65,36
444,3671437,2018-06-12,04:07,Puerto Leguizamo,CO,South America,-0.19,-74.78,74.46,97,2.26,12
445,212730,2018-06-12,04:07,Kisangani,CD,Africa,0.52,25.21,72.57,92,2.59,64
446,3714956,2018-06-12,04:07,Ailigandi,PA,North America,9.23,-78.02,75.0,98,2.04,80
447,2162683,2018-06-12,04:07,Innisfail,AU,Oceania,-17.52,146.03,72.3,68,3.15,8
448,2027786,2018-06-12,04:07,Amga,RU,Europe,60.89,131.98,48.18,63,7.07,92
449,1241622,2018-06-12,04:07,Wattegama,LK,Asia,7.35,80.68,72.57,99,6.73,80
450,1253237,2018-06-12,04:07,Veraval,IN,Asia,20.9,70.37,85.08,86,18.81,92
451,2068655,2018-06-12,04:07,Katherine,AU,Oceania,-14.47,132.26,87.8,38,9.17,0
452,1706466,2018-06-12,04:07,Ligayan,PH,Asia,4.65,119.47,84.36,100,8.19,0
453,2961459,2018-06-12,04:07,Skibbereen,IE,Europe,51.55,-9.27,55.4,87,11.41,75
454,2448085,2018-06-12,04:07,Agadez,NE,Africa,16.97,7.99,68.7,25,1.7,0
455,2122104,2018-06-12,04:07,Petropavlovsk-Kamchatskiy,RU,Europe,53.05,158.65,44.6,87,13.42,75
456,2028164,2018-06-12,04:07,Deputatskiy,RU,Europe,69.3,139.9,68.16,29,4.05,0
457,777682,2018-06-12,04:07,Skjervoy,NO,Europe,70.03,20.97,39.0,100,11.21,92
458,6445060,2018-06-12,04:07,Sainte-Maxime,FR,Europe,43.31,6.64,64.85,88,3.36,24
459,6144312,2018-06-12,04:07,Sept-Iles,CA,North America,50.2,-66.38,42.8,75,1.81,90
460,1806408,2018-06-12,04:07,Yangjiang,CN,Asia,21.85,111.96,82.92,100,9.75,88
461,2381334,2018-06-12,04:07,Atar,MR,Africa,20.52,-13.05,70.77,45,4.83,0
462,2129163,2018-06-12,04:07,Mombetsu,JP,Asia,44.35,143.35,48.2,87,6.93,75
463,4994325,2018-06-12,04:07,Grand Haven,US,North America,43.06,-86.23,70.56,53,8.05,90
464,1059051,2018-06-12,04:07,Miandrivazo,MG,Africa,-19.53,45.46,54.84,84,2.37,0
465,1520327,2018-06-12,04:07,Osakarovka,KZ,Asia,50.56,72.58,70.32,57,9.98,0
466,2063036,2018-06-12,04:07,Port Lincoln,AU,Oceania,-34.72,135.86,59.07,88,15.79,80
467,2120591,2018-06-12,04:07,Tilichiki,RU,Europe,60.47,166.1,54.48,71,3.6,0
468,1712961,2018-06-12,04:07,Gigmoto,PH,Asia,13.78,124.39,85.71,92,17.02,68
469,2122614,2018-06-12,04:07,Okha,RU,Europe,53.59,142.95,49.71,73,16.46,76
470,3373652,2018-06-12,04:07,Oistins,BB,North America,13.07,-59.53,78.8,83,17.22,40
471,2704613,2018-06-12,04:07,Hudiksvall,SE,Europe,61.73,17.1,57.45,76,13.56,44
472,5983607,2018-06-12,04:07,Inuvik,CA,North America,68.36,-133.71,41.0,44,10.29,90
473,487928,2018-06-12,04:07,Novikovo,RU,Europe,51.15,37.89,57.36,63,4.72,0
474,3512067,2018-06-12,04:07,Bani,DO,North America,18.28,-70.33,80.04,100,13.33,92
475,7626370,2018-06-12,04:07,Bud,NO,Europe,62.91,6.91,47.59,76,6.93,75
476,2823533,2018-06-12,04:07,Templin,DE,Europe,53.12,13.5,57.2,76,5.82,0
477,3407407,2018-06-12,04:07,Aquiraz,BR,South America,-3.9,-38.39,80.6,78,12.75,40
478,2428394,2018-06-12,04:07,Mao,TD,Africa,14.12,15.31,73.29,53,2.71,0
479,3521972,2018-06-12,04:07,Panaba,MX,North America,21.28,-88.27,79.23,68,7.74,0
480,3388847,2018-06-12,04:07,Sao Felix do Xingu,BR,South America,-6.64,-51.99,77.88,60,4.16,0
481,608270,2018-06-12,04:07,Shubarshi,KZ,Asia,48.59,57.19,55.83,53,5.73,64
482,3407755,2018-06-12,04:07,Amarante do Maranhao,BR,South America,-5.57,-46.74,70.5,79,3.38,0
483,2128975,2018-06-12,04:07,Nemuro,JP,Asia,43.32,145.57,44.6,93,10.29,75
484,2206808,2018-06-12,04:07,Wairoa,NZ,Oceania,-39.04,177.43,58.44,98,23.62,76
485,1528193,2018-06-12,04:07,Kant,KG,Asia,42.89,74.85,52.41,86,1.92,24
486,6620339,2018-06-12,04:07,Karratha,AU,Oceania,-20.74,116.85,78.33,38,8.63,0
487,1082243,2018-06-12,04:07,Ambilobe,MG,Africa,-13.19,49.05,72.48,73,10.87,0
488,3390581,2018-06-12,04:07,Riachao,BR,South America,-7.36,-46.62,72.75,57,5.95,0
489,1523662,2018-06-12,04:07,Kachiry,KZ,Asia,53.07,76.1,72.48,43,11.77,0
490,3454005,2018-06-12,04:07,Piacabucu,BR,South America,-10.41,-36.43,74.1,90,8.97,56
491,2079582,2018-06-12,04:07,Alyangula,AU,Oceania,-13.85,136.42,80.22,86,10.76,20
492,2034600,2018-06-12,04:07,Taikang,CN,Asia,46.86,124.44,71.94,68,1.7,44
493,1053384,2018-06-12,04:07,Toamasina,MG,Africa,-18.17,49.38,68.0,94,4.7,40
494,778707,2018-06-12,04:07,Mehamn,NO,Europe,71.03,27.85,37.4,74,13.87,75
495,2707684,2018-06-12,04:07,Harnosand,SE,Europe,62.63,17.94,50.0,57,16.11,8
496,1862505,2018-06-12,04:07,Hirara,JP,Asia,24.8,125.28,83.32,61,14.99,0
497,5972291,2018-06-12,04:07,Havre-Saint-Pierre,CA,North America,50.23,-63.6,39.2,86,4.7,40
498,484644,2018-06-12,04:07,Tambovka,RU,Europe,47.32,47.38,61.41,53,4.94,0
499,6096551,2018-06-12,04:07,Pangnirtung,CA,North America,66.15,-65.72,26.22,94,4.61,8
500,2276492,2018-06-12,04:07,Harper,LR,Africa,4.38,-7.71,76.17,100,3.15,88
501,3623787,2018-06-12,04:07,Escazu,CR,North America,9.92,-84.14,71.6,88,1.12,75
502,3468020,2018-06-12,04:07,Camapua,BR,South America,-19.53,-54.04,72.93,73,8.41,0
503,80509,2018-06-12,04:07,Bardiyah,LY,Africa,31.76,25.09,72.48,98,16.35,0
504,3982846,2018-06-12,04:07,San Jeronimo,MX,North America,29.37,-110.79,96.8,19,6.93,40
505,1805857,2018-06-12,04:07,Jieshi,CN,Asia,22.82,115.83,85.17,87,8.86,12
506,2094746,2018-06-12,04:07,Kandrian,PG,Oceania,-6.21,149.55,78.15,92,7.29,92
507,335733,2018-06-12,04:07,Gimbi,ET,Africa,8.81,37.79,49.35,95,2.59,92
508,3404558,2018-06-12,04:07,Cabedelo,BR,South America,-6.97,-34.84,71.6,88,4.7,0
509,3976324,2018-06-12,04:07,Concordia,MX,North America,23.29,-106.07,86.0,66,1.7,75
510,3464511,2018-06-12,04:07,Dores do Indaia,BR,South America,-19.46,-45.6,58.62,86,2.71,12
511,3934707,2018-06-12,04:07,Mollendo,PE,South America,-17.03,-72.02,52.5,95,3.15,36
512,251297,2018-06-12,04:07,Elos,GR,Europe,36.83,22.7,62.6,82,3.15,0
513,490065,2018-06-12,04:07,Sovetskaya,RU,Europe,44.78,41.17,62.4,60,4.16,0
514,556268,2018-06-12,04:07,Ostrovnoy,RU,Europe,68.05,39.51,35.4,100,17.81,92
515,5384339,2018-06-12,04:07,Port Hueneme,US,North America,34.15,-119.2,68.22,72,4.7,1
516,2064550,2018-06-12,04:07,Northam,AU,Oceania,-31.65,116.67,59.0,93,5.82,75
517,2035669,2018-06-12,04:07,Nancha,CN,Asia,47.14,129.26,68.43,70,3.04,64
518,1337607,2018-06-12,04:07,Kudahuvadhoo,MV,Asia,2.67,72.89,81.12,100,11.65,76
519,2986160,2018-06-12,04:07,Pontivy,FR,Europe,48.06,-2.97,57.2,82,13.87,0
520,5906757,2018-06-12,04:07,Bow Island,CA,North America,49.87,-111.38,60.8,32,14.99,75
521,3405304,2018-06-12,04:07,Bom Jesus,BR,South America,-9.08,-44.36,77.07,61,11.65,8
522,2562247,2018-06-12,04:07,Marsaxlokk,MT,Europe,35.84,14.54,71.6,88,8.05,0
523,1328421,2018-06-12,04:07,Pathein,MM,Asia,16.78,94.73,83.1,85,18.37,92
524,3388456,2018-06-12,04:07,Sao Jose da Coroa Grande,BR,South America,-8.9,-35.15,74.28,97,7.74,92
525,1797353,2018-06-12,04:07,Quanzhou,CN,Asia,24.9,118.59,87.8,62,6.71,20
526,2126785,2018-06-12,04:07,Belaya Gora,RU,Europe,68.54,146.19,70.05,27,4.38,0
527,3456160,2018-06-12,04:07,Olinda,BR,South America,-22.82,-43.41,70.74,88,3.36,0
528,2034651,2018-06-12,04:07,Suileng,CN,Asia,47.25,127.08,73.56,84,4.83,32
529,3446370,2018-06-12,04:07,Toledo,BR,South America,-24.72,-53.74,65.46,94,9.98,20
530,347634,2018-06-12,04:07,Tahta,EG,Africa,26.77,31.5,69.8,49,13.87,0
531,5640350,2018-06-12,04:07,Billings,US,North America,45.79,-108.5,50.0,61,8.05,75
532,1680604,2018-06-12,04:07,Tupsan,PH,Asia,9.2,124.78,87.24,77,1.81,8
533,3696183,2018-06-12,04:07,Iquitos,PE,South America,-3.75,-73.25,73.4,94,2.37,75
534,3352136,2018-06-12,04:07,Windhoek,NA,Africa,-22.57,17.08,40.68,29,3.36,0
535,906054,2018-06-12,04:07,Mongu,ZM,Africa,-15.27,23.14,47.28,58,9.53,0
536,1244926,2018-06-12,04:07,Hambantota,LK,Asia,6.12,81.12,79.32,100,13.33,56
537,3671497,2018-06-12,04:07,Puerto Colombia,CO,South America,10.99,-74.96,78.8,94,4.7,40
538,503374,2018-06-12,04:07,Pytalovo,RU,Europe,57.06,27.92,61.41,97,11.21,68
539,2013216,2018-06-12,04:07,Vysokogornyy,RU,Europe,50.1,139.13,57.0,44,5.73,64
540,3617154,2018-06-12,04:07,Puerto Cabezas,NI,North America,14.04,-83.39,77.07,100,10.2,88
541,5666176,2018-06-12,04:07,Miles City,US,North America,46.41,-105.84,57.2,47,14.99,90
542,1650434,2018-06-12,04:07,Bambanglipuro,ID,Asia,-7.95,110.28,81.84,66,6.73,92
543,3357804,2018-06-12,04:07,Eenhana,NA,Africa,-17.48,16.34,46.74,37,9.75,0
544,3920244,2018-06-12,04:07,Chulumani,BO,South America,-16.41,-67.53,33.8,64,2.24,75
545,2026544,2018-06-12,04:07,Bokhan,RU,Europe,53.15,103.77,69.51,70,3.49,8
546,3529654,2018-06-12,04:07,Dzilam Gonzalez,MX,North America,21.28,-88.93,80.67,65,7.4,8
547,933726,2018-06-12,04:07,Tshane,BW,Africa,-24.02,21.87,40.35,67,9.19,0
548,3372783,2018-06-12,04:07,Ponta Delgada,PT,Europe,37.73,-25.67,66.2,93,3.36,40
549,1488903,2018-06-12,04:07,Turukhansk,RU,Europe,65.8,87.96,59.34,100,9.53,92
550,1252783,2018-06-12,04:07,Yarada,IN,Asia,17.65,83.27,82.29,100,30.56,92
551,3936456,2018-06-12,04:07,Lima,PE,South America,-12.06,-77.04,54.21,88,1.48,12
552,2158767,2018-06-12,04:07,Mareeba,AU,Oceania,-16.99,145.42,78.8,57,9.17,20
553,1734705,2018-06-12,04:08,Kuala Terengganu,MY,Asia,5.33,103.14,86.0,70,5.82,75
554,5895424,2018-06-12,04:08,Bay Roberts,CA,North America,47.58,-53.28,35.6,79,6.93,75
555,6067472,2018-06-12,04:08,Marystown,CA,North America,47.17,-55.16,46.74,75,10.65,88
556,1848976,2018-06-12,04:08,Wajima,JP,Asia,37.4,136.9,66.2,93,9.17,75
557,3406961,2018-06-12,04:08,Augusto Correa,BR,South America,-1.02,-46.63,78.42,78,5.61,20
558,1497210,2018-06-12,04:08,Novoagansk,RU,Europe,61.94,76.66,60.42,63,4.27,0
559,2093846,2018-06-12,04:08,Kiunga,PG,Oceania,-6.12,141.3,83.01,77,2.82,20
560,3472473,2018-06-12,04:08,Alto Araguaia,BR,South America,-17.32,-53.22,70.14,72,8.19,68
561,3125287,2018-06-12,04:08,Cervo,ES,Europe,43.67,-7.41,60.96,100,9.31,92
562,2175403,2018-06-12,04:08,Blackwater,AU,Oceania,-23.58,148.88,78.24,29,4.5,0
563,3353715,2018-06-12,04:08,Outjo,NA,Africa,-20.11,16.16,50.0,37,4.7,0
564,1159384,2018-06-12,04:08,Taybad,IR,Asia,34.74,60.78,74.55,31,11.21,8
565,1529651,2018-06-12,04:08,Altay,CN,Asia,47.83,88.13,66.63,46,1.03,24
566,1503153,2018-06-12,04:08,Klyuchi,RU,Europe,52.25,79.17,71.22,51,6.17,0
567,186315,2018-06-12,04:08,Molo,KE,Africa,-0.25,35.73,45.12,93,3.49,8
568,1801200,2018-06-12,04:08,Haimen,CN,Asia,31.87,121.18,87.15,55,8.41,56
569,7082481,2018-06-12,04:08,Khuzdar,PK,Asia,27.8,66.62,79.05,32,3.71,0
570,576093,2018-06-12,04:08,Blagoyevo,RU,Europe,63.37,47.92,46.2,57,5.73,8
571,3899539,2018-06-12,04:08,Antofagasta,CL,South America,-23.65,-70.4,55.4,87,13.87,20
572,878242,2018-06-12,04:08,Liuli,TZ,Africa,-11.1,34.65,66.9,100,5.61,0
573,2343252,2018-06-12,04:08,Epe,NG,Africa,6.59,3.98,76.62,94,6.17,80
574,3141667,2018-06-12,04:08,Roald,NO,Europe,62.58,6.12,48.81,87,8.05,75
575,3698359,2018-06-12,04:08,Chicama,PE,South America,-7.84,-79.15,64.4,88,11.41,90
576,88533,2018-06-12,04:08,Awjilah,LY,Africa,29.14,21.3,74.46,41,7.4,76
577,2553604,2018-06-12,04:08,Casablanca,MA,Africa,33.6,-7.62,60.8,93,4.7,40
578,2410048,2018-06-12,04:08,Bunumbu,SL,Africa,7.96,-11.73,75.0,99,2.82,88
579,2446796,2018-06-12,04:08,Bilma,NE,Africa,18.69,12.92,68.79,18,2.71,0
580,3197369,2018-06-12,04:08,Krapina,HR,Europe,46.16,15.87,68.67,88,5.82,0
581,3441273,2018-06-12,04:08,Paso de los Toros,UY,South America,-32.81,-56.52,51.15,93,7.52,80
582,3666409,2018-06-12,04:08,Uribia,CO,South America,11.71,-72.27,82.56,68,20.49,44
583,2249782,2018-06-12,04:08,Kolda,SN,Africa,12.89,-14.94,77.52,77,10.2,0
584,3461408,2018-06-12,04:08,Ilheus,BR,South America,-14.79,-39.05,76.26,100,9.19,92
585,732015,2018-06-12,04:08,Dospat,BG,Europe,41.65,24.16,54.75,85,1.7,0
586,123941,2018-06-12,04:08,Minab,IR,Asia,27.15,57.07,91.4,66,6.93,0
587,1847947,2018-06-12,04:08,Shingu,JP,Asia,33.72,135.99,78.8,69,17.22,40
588,3674292,2018-06-12,04:08,Mosquera,CO,South America,4.71,-74.23,53.6,81,6.93,75
589,2643490,2018-06-12,04:08,Lowestoft,GB,Europe,52.48,1.75,54.16,93,2.24,0
590,1254133,2018-06-12,04:08,Tuensang,IN,Asia,26.24,94.81,72.57,94,1.36,88
591,5952370,2018-06-12,04:08,Fernie,CA,North America,49.5,-115.06,50.0,53,16.11,40
592,3412093,2018-06-12,04:08,Vestmannaeyjar,IS,Europe,63.44,-20.27,46.02,99,5.39,92
593,3144987,2018-06-12,04:08,Bjerkvik,NO,Europe,68.55,17.56,40.87,93,5.82,75
594,2524976,2018-06-12,04:08,Cittanova,IT,Europe,38.35,16.08,66.7,83,1.12,0
595,1272502,2018-06-12,04:08,Diu,IN,Asia,20.71,70.98,83.55,84,13.0,100
596,162158,2018-06-12,04:08,Baherden,TM,Asia,38.44,57.43,77.88,42,6.62,8
597,4708328,2018-06-12,04:08,Lumberton,US,North America,30.27,-94.2,80.02,83,3.36,1
598,3532499,2018-06-12,04:08,Tecoanapa,MX,North America,16.99,-99.26,80.6,83,3.36,75
599,4154205,2018-06-12,04:08,Edgewater,US,North America,28.99,-80.9,74.77,94,3.36,40
600,2460954,2018-06-12,04:08,Araouane,ML,Africa,18.9,-3.53,94.44,22,5.61,80
601,583683,2018-06-12,04:08,Aksarayskiy,RU,Europe,46.79,48.01,64.4,39,6.71,0
602,7671223,2018-06-12,04:08,Kloulklubed,PW,Oceania,7.04,134.26,86.0,66,5.82,90
603,3451051,2018-06-12,04:08,Rio Verde de Mato Grosso,BR,South America,-18.92,-54.84,72.03,75,6.85,0
604,2036338,2018-06-12,04:08,Kaitong,CN,Asia,44.81,123.15,76.44,84,4.16,20
605,1037125,2018-06-12,04:08,Montepuez,MZ,Africa,-13.13,39.0,62.4,89,11.32,0
606,191038,2018-06-12,04:08,Kitui,KE,Africa,-1.37,38.02,58.98,93,4.5,88
607,2152659,2018-06-12,04:08,Port Macquarie,AU,Oceania,-31.43,152.91,64.4,59,8.05,40
608,1849892,2018-06-12,04:08,Tottori,JP,Asia,35.5,134.23,65.44,88,12.75,75
609,921889,2018-06-12,04:08,Fomboni,KM,Africa,-12.28,43.74,82.29,95,16.58,56
610,3452711,2018-06-12,04:08,Porto Nacional,BR,South America,-10.7,-48.41,79.05,55,2.93,76
611,366426,2018-06-12,04:08,Tandalti,SD,Africa,13.01,31.87,81.3,63,10.09,48
612,2449893,2018-06-12,04:08,Tessalit,ML,Africa,20.2,1.01,83.37,27,7.18,24
613,2264923,2018-06-12,04:08,Peniche,PT,Europe,39.36,-9.38,60.04,93,4.7,75
614,3838859,2018-06-12,04:08,Rio Gallegos,AR,South America,-51.62,-69.22,32.0,100,5.82,40
615,5329649,2018-06-12,04:08,Blythe,US,North America,33.61,-114.59,100.4,8,10.29,1
616,3356343,2018-06-12,04:08,Karasburg,NA,Africa,-28.01,18.75,45.39,40,6.62,0
617,6255012,2018-06-12,04:08,Flinders,AU,Oceania,-34.58,150.85,57.2,62,1.12,0
618,5089850,2018-06-12,04:08,Moultonborough,US,North America,43.76,-71.4,50.0,58,4.7,1
619,2140558,2018-06-12,04:08,Koumac,NC,Oceania,-20.56,164.28,75.27,64,2.93,0
620,3573374,2018-06-12,04:08,The Valley,AI,North America,18.22,-63.06,82.4,74,16.11,40
621,1493467,2018-06-12,04:08,Rubtsovsk,RU,Europe,51.53,81.22,70.95,61,5.84,0
622,3453060,2018-06-12,04:08,Pontes e Lacerda,BR,South America,-15.23,-59.33,69.24,86,3.49,20
623,2358100,2018-06-12,04:08,Manga,BF,Africa,11.67,-1.07,78.87,80,8.08,12
624,2422465,2018-06-12,04:08,Conakry,GN,Africa,9.52,-13.7,80.6,88,11.65,75
625,3460825,2018-06-12,04:08,Itamarandiba,BR,South America,-17.86,-42.86,61.68,98,3.94,68
626,3382867,2018-06-12,04:08,Totness,SR,South America,5.88,-56.32,77.88,100,9.75,88
627,3994534,2018-06-12,04:08,Ocampo,MX,North America,27.32,-102.4,81.66,33,9.19,8
628,3553478,2018-06-12,04:08,Santa Fe,CU,North America,23.13,-82.26,71.6,94,4.7,75
629,2399001,2018-06-12,04:08,Mayumba,GA,Africa,-3.44,10.65,71.58,98,2.48,24
630,780687,2018-06-12,04:08,Berlevag,NO,Europe,70.86,29.09,37.4,74,13.87,75
631,1268008,2018-06-12,04:08,Kanniyakumari,IN,Asia,8.08,77.57,78.87,100,15.01,32
632,4535961,2018-06-12,04:08,Enid,US,North America,36.4,-97.88,82.47,78,11.41,1
633,665790,2018-06-12,04:08,Sulina,RO,Europe,45.16,29.65,67.71,99,7.18,36
634,463355,2018-06-12,04:08,Zheleznodorozhnyy,RU,Europe,55.75,38.0,60.8,55,6.71,0
635,3840092,2018-06-12,04:08,Puerto Madryn,AR,South America,-42.77,-65.04,41.7,100,11.99,92
636,2667628,2018-06-12,04:08,Tranas,SE,Europe,58.04,14.98,55.38,93,10.29,64
637,1273434,2018-06-12,04:08,Daryapur,IN,Asia,20.92,77.32,83.28,74,15.68,24
638,3867427,2018-06-12,04:08,Mayor Pablo Lagerenza,PY,South America,-19.93,-60.77,84.27,49,23.06,0
639,6355222,2018-06-12,04:08,Yulara,AU,Oceania,-25.24,130.99,64.4,34,11.41,0
640,1630639,2018-06-12,04:08,Pringsewu,ID,Asia,-5.36,104.98,87.78,60,3.15,32
641,3483197,2018-06-12,04:08,San Fernando,MX,North America,24.85,-98.15,86.07,55,17.69,80
642,3347353,2018-06-12,04:08,Menongue,AO,Africa,-14.66,17.68,43.95,54,4.5,0
643,3601402,2018-06-12,04:08,Savannah Bight,HN,North America,16.45,-85.85,82.02,100,16.8,8
644,3654410,2018-06-12,04:08,Manta,EC,South America,-0.95,-80.73,71.6,88,11.41,75
645,3470821,2018-06-12,04:08,Barra,BR,South America,-11.09,-43.14,73.74,74,11.54,0
646,3380290,2018-06-12,04:08,Sinnamary,GF,South America,5.38,-52.96,75.9,100,4.61,88
647,212360,2018-06-12,04:08,Kongolo,CD,Africa,-5.39,27.0,70.32,69,2.37,0
648,2122574,2018-06-12,04:08,Ola,RU,Europe,59.58,151.3,48.2,81,13.42,75
649,779622,2018-06-12,04:08,Havoysund,NO,Europe,71.0,24.66,37.4,69,9.17,75
650,1626542,2018-06-12,04:08,Sorong,ID,Asia,-0.86,131.25,82.47,100,2.82,0
651,3860443,2018-06-12,04:08,Comodoro Rivadavia,AR,South America,-45.87,-67.48,35.6,64,10.29,0
652,2240449,2018-06-12,04:08,Luanda,AO,Africa,-8.83,13.24,68.25,99,4.27,0
653,477940,2018-06-12,04:08,Ust-Tsilma,RU,Europe,65.44,52.15,45.12,66,3.38,8
654,978895,2018-06-12,04:08,Margate,ZA,Africa,-30.86,30.37,63.39,88,13.0,8
655,496035,2018-06-12,04:08,Shakhovskaya,RU,Europe,56.03,35.51,60.6,60,10.76,88
656,1634718,2018-06-12,04:08,Muncar,ID,Asia,-8.43,114.34,78.87,90,7.63,92
657,2798357,2018-06-12,04:08,Fexhe-le-Haut-Clocher,BE,Europe,50.67,5.4,57.7,87,8.05,0
658,1500399,2018-06-12,04:08,Lokosovo,RU,Europe,61.13,74.84,58.62,61,5.17,36
659,1624725,2018-06-12,04:08,Tarakan,ID,Asia,3.3,117.63,80.58,100,3.71,48
660,213940,2018-06-12,04:08,Kasongo,CD,Africa,-4.43,26.67,71.49,52,3.04,8
661,1801640,2018-06-12,04:08,Luzhou,CN,Asia,28.89,105.45,69.33,100,3.15,100
662,1489401,2018-06-12,04:08,Toora-Khem,RU,Europe,52.47,96.11,67.62,66,2.59,8
663,2219235,2018-06-12,04:08,Awbari,LY,Africa,26.59,12.77,94.62,12,6.62,80
664,2138555,2018-06-12,04:08,Poum,NC,Oceania,-20.23,164.02,72.84,100,5.61,0
665,4163049,2018-06-12,04:08,Lynn Haven,US,North America,30.25,-85.65,76.41,88,7.74,75
666,5055787,2018-06-12,04:08,Kirksville,US,North America,40.19,-92.58,74.16,94,10.29,75
667,698102,2018-06-12,04:08,Ozerne,UA,Europe,50.18,28.74,63.3,95,7.74,20
668,2423126,2018-06-12,04:08,Beyla,GN,Africa,8.69,-8.65,66.72,95,3.38,32
669,161616,2018-06-12,04:08,Balkanabat,TM,Asia,39.51,54.36,74.01,32,2.59,76
670,2027968,2018-06-12,04:08,Aldan,RU,Europe,58.61,125.39,47.64,84,6.17,88
671,1139085,2018-06-12,04:08,Jurm,AF,Asia,36.86,70.83,43.95,68,1.59,0
672,2447513,2018-06-12,04:08,Arlit,NE,Africa,18.74,7.39,75.72,26,5.5,0
673,1213855,2018-06-12,04:08,Sibolga,ID,Asia,1.74,98.78,79.86,72,2.15,12
674,1280957,2018-06-12,04:08,Jiuquan,CN,Asia,39.73,98.49,70.68,39,2.15,0
675,2013258,2018-06-12,04:08,Vrangel,RU,Europe,42.73,133.08,54.21,89,8.63,88
676,710129,2018-06-12,04:08,Derazhnya,UA,Europe,49.27,27.43,64.47,88,6.62,12
677,1058381,2018-06-12,04:08,Morondava,MG,Africa,-20.3,44.28,66.63,100,6.06,0
678,2188874,2018-06-12,04:08,Russell,NZ,Oceania,-35.26,174.12,59.88,73,19.93,8
679,2989755,2018-06-12,04:08,Octeville,FR,Europe,49.63,-1.64,54.63,93,9.17,0
680,176758,2018-06-12,04:08,Kaputa,ZM,Africa,-8.47,29.66,57.72,74,6.29,0
681,962367,2018-06-12,04:08,Richards Bay,ZA,Africa,-28.77,32.06,55.38,99,4.94,0
682,630769,2018-06-12,04:08,Ylivieska,FI,Europe,64.07,24.53,48.9,61,8.63,0
683,371745,2018-06-12,04:08,Kutum,SD,Africa,14.2,24.66,77.88,38,8.63,24
684,4004293,2018-06-12,04:08,Ixtapa,MX,North America,20.71,-105.21,84.2,89,3.36,90
685,3395458,2018-06-12,04:08,Maragogi,BR,South America,-9.01,-35.22,74.28,97,7.74,92
686,2057087,2018-06-12,04:08,Kupang,ID,Asia,-10.16,123.6,84.09,74,10.2,0
687,3474574,2018-06-12,04:08,Palmas,BR,South America,-10.18,-48.33,76.62,49,4.94,12
688,1549035,2018-06-12,04:08,Fushan,CN,Asia,32.67,118.71,88.5,65,6.96,20
689,1715430,2018-06-12,04:08,Sapa,PH,Asia,14.32,120.76,78.8,100,8.05,90
690,2013392,2018-06-12,04:08,Vilyuysk,RU,Europe,63.75,121.63,70.05,27,5.28,92
691,889191,2018-06-12,04:08,Karoi,ZW,Africa,-16.82,29.68,51.42,88,9.53,0
692,2335727,2018-06-12,04:08,Kaduna,NG,Africa,10.52,7.44,72.66,86,5.84,36
693,1490085,2018-06-12,04:08,Tarko-Sale,RU,Europe,64.92,77.78,57.18,88,9.75,56
694,2122605,2018-06-12,04:08,Okhotsk,RU,Europe,59.36,143.24,44.85,100,6.29,76
695,4944903,2018-06-12,04:08,Nantucket,US,North America,41.28,-70.1,49.33,81,4.7,1
696,1805012,2018-06-12,04:08,Zhicheng,CN,Asia,35.04,112.59,88.68,54,4.16,0
697,1650095,2018-06-12,04:08,Banyumas,ID,Asia,-7.52,109.29,80.85,91,15.23,88
698,2122493,2018-06-12,04:08,Omsukchan,RU,Europe,62.53,155.8,56.82,41,10.65,0
699,4031637,2018-06-12,04:08,Lavrentiya,RU,Europe,65.58,-170.99,32.7,95,3.49,36
700,3437526,2018-06-12,04:08,Pilar,PY,South America,-26.86,-58.3,64.47,97,7.63,68
701,1735902,2018-06-12,04:08,Sibu,MY,Asia,2.29,111.83,87.8,70,4.7,75
702,5418104,2018-06-12,04:08,Cortez,US,North America,37.35,-108.58,69.8,21,4.7,1
703,2361177,2018-06-12,04:08,Djibo,BF,Africa,14.1,-1.63,82.47,61,9.75,0
704,2165798,2018-06-12,04:08,Geelong,AU,Oceania,-38.15,144.36,60.17,59,19.46,90
705,4176409,2018-06-12,04:08,Vero Beach,US,North America,27.64,-80.4,74.05,88,3.36,1
706,1621313,2018-06-12,04:08,Ambulu,ID,Asia,-8.35,113.61,79.86,95,6.51,80
707,1303406,2018-06-12,04:08,Nyaunglebin,MM,Asia,17.95,96.73,76.71,100,10.76,92
708,506232,2018-06-12,04:08,Porosozero,RU,Europe,62.72,32.71,51.06,92,7.07,32
709,2127202,2018-06-12,04:08,Anadyr,RU,Europe,64.73,177.51,66.2,29,8.95,0
710,878141,2018-06-12,04:08,Madimba,TZ,Africa,-10.4,40.33,77.34,100,14.9,36
711,1271113,2018-06-12,04:08,Godda,IN,Asia,24.83,87.21,80.67,96,6.06,88
712,2026160,2018-06-12,04:08,Borogontsy,RU,Europe,62.67,131.17,64.47,27,8.63,0
713,3382160,2018-06-12,04:08,Cayenne,GF,South America,4.94,-52.33,77.0,100,4.27,75
714,2377457,2018-06-12,04:08,Nouadhibou,MR,Africa,20.93,-17.03,64.4,72,21.92,0
715,1640902,2018-06-12,04:08,Kawalu,ID,Asia,-7.38,108.21,71.85,95,2.93,88
716,2501152,2018-06-12,04:08,Constantine,DZ,Africa,36.36,6.61,57.2,82,1.12,0
717,3935624,2018-06-12,04:08,Macusani,PE,South America,-14.07,-70.43,40.89,96,1.92,8
718,2246901,2018-06-12,04:08,Oussouye,SN,Africa,12.49,-16.54,74.1,100,6.4,0
719,1637001,2018-06-12,04:08,Biak,ID,Asia,-0.91,122.88,82.02,87,5.61,76
720,3472234,2018-06-12,04:08,Angatuba,BR,South America,-23.49,-48.41,70.14,70,8.08,24
721,1242110,2018-06-12,04:08,Kalmunai,LK,Asia,7.42,81.82,85.98,72,9.31,64
722,1337605,2018-06-12,04:08,Mahibadhoo,MV,Asia,3.78,72.97,82.02,100,13.33,92
723,3421719,2018-06-12,04:08,Narsaq,GL,North America,60.91,-46.05,51.8,37,6.93,100
724,1808977,2018-06-12,04:08,Hanchuan,CN,Asia,30.65,113.83,89.6,52,8.95,0
725,2685750,2018-06-12,04:08,Ostersund,SE,Europe,63.18,14.64,42.8,70,13.87,90
726,1641899,2018-06-12,04:08,Labuhan,ID,Asia,-2.54,115.51,86.43,70,3.15,64
727,5861897,2018-06-12,04:08,Fairbanks,US,North America,64.84,-147.72,50.67,76,10.29,90
728,2173911,2018-06-12,04:08,Broken Hill,AU,Oceania,-31.97,141.45,59.7,66,13.67,0
729,1252908,2018-06-12,04:08,Washim,IN,Asia,20.1,77.14,77.88,91,8.41,76
730,2037078,2018-06-12,04:08,Hailar,CN,Asia,49.2,119.7,71.22,74,11.88,0
731,100926,2018-06-12,04:08,Umm Lajj,SA,Asia,25.02,37.27,76.35,87,2.15,0
732,2029947,2018-06-12,04:08,Moron,MN,Asia,47.38,110.32,60.87,60,9.53,20
733,5955902,2018-06-12,04:08,Fort Nelson,CA,North America,58.81,-122.69,57.2,67,14.99,90
734,3441665,2018-06-12,04:08,Minas,UY,South America,-34.38,-55.24,55.4,93,4.7,90
735,2450173,2018-06-12,04:09,Taoudenni,ML,Africa,22.68,-3.98,79.68,18,10.87,12
736,2192362,2018-06-12,04:09,Christchurch,NZ,Oceania,-43.53,172.64,46.4,100,5.82,92
737,2270385,2018-06-12,04:09,Camacha,PT,Europe,33.08,-16.33,67.23,82,17.22,40
738,3396016,2018-06-12,04:09,Macapa,BR,South America,0.05,-51.07,77.0,100,4.7,0
739,580584,2018-06-12,04:09,Askarovo,RU,Europe,53.34,58.51,51.8,53,11.18,40
740,1490918,2018-06-12,04:09,Staryy Nadym,RU,Europe,65.61,72.68,53.22,98,7.18,0
741,3478424,2018-06-12,04:09,Pontal do Parana,BR,South America,-25.67,-48.51,68.0,82,4.7,0
742,1639362,2018-06-12,04:09,Kresek,ID,Asia,-6.13,106.38,89.6,62,3.36,20
743,2243271,2018-06-12,04:09,Cabinda,AO,Africa,-5.56,12.19,75.45,100,6.4,0
744,2121025,2018-06-12,04:09,Srednekolymsk,RU,Europe,67.46,153.71,67.44,48,6.96,0
745,164947,2018-06-12,04:09,Salamiyah,SY,Asia,35.01,37.05,65.28,87,11.43,88
746,2063056,2018-06-12,04:09,Port Augusta,AU,Oceania,-32.49,137.76,60.8,55,13.87,90
747,1625929,2018-06-12,04:09,Sungaipenuh,ID,Asia,-2.08,101.38,75.18,82,1.59,20
748,5768244,2018-06-12,04:09,Rapid Valley,US,North America,44.06,-103.15,58.01,55,12.75,1
749,5059429,2018-06-12,04:09,Key West,US,North America,47.93,-96.78,52.92,100,5.82,1
750,1630723,2018-06-12,04:09,Poso,ID,Asia,-1.4,120.75,82.92,100,4.16,20
751,5012495,2018-06-12,04:09,Traverse City,US,North America,44.76,-85.62,63.72,66,11.43,1
752,1630366,2018-06-12,04:09,Sampang,ID,Asia,-7.54,109.46,80.85,91,15.23,88
753,1853483,2018-06-12,04:09,Oyama,JP,Asia,36.31,139.8,70.23,73,8.05,75
754,3664539,2018-06-12,04:09,Coari,BR,South America,-4.09,-63.14,81.12,68,5.17,0
755,1054463,2018-06-12,04:09,Tsiroanomandidy,MG,Africa,-18.77,46.05,56.1,87,4.94,20
756,2214827,2018-06-12,04:09,Mizdah,LY,Africa,31.45,12.98,79.59,26,4.94,36
757,935616,2018-06-12,04:09,Le Port,RE,Africa,-20.94,55.29,68.95,64,8.05,20
758,3456248,2018-06-12,04:09,Nortelandia,BR,South America,-14.45,-56.8,69.87,88,2.71,0
759,3520064,2018-06-12,04:09,Salina Cruz,MX,North America,16.18,-95.2,76.35,97,2.93,80
760,5420241,2018-06-12,04:09,Durango,US,North America,37.28,-107.88,73.11,10,5.82,1
761,589663,2018-06-12,04:09,Paldiski,EE,Europe,59.35,24.08,59.0,93,6.93,75
762,1648759,2018-06-12,04:09,Bima,ID,Asia,-8.45,118.73,82.74,75,3.71,20
763,5374920,2018-06-12,04:09,Morro Bay,US,North America,35.37,-120.85,63.14,87,10.29,1
764,3381538,2018-06-12,04:09,Grand-Santi,GF,South America,4.27,-54.38,71.22,100,2.15,92
765,2015913,2018-06-12,04:09,Suntar,RU,Europe,62.16,117.65,71.85,39,3.71,0
766,101628,2018-06-12,04:09,Tabuk,SA,Asia,28.38,36.58,73.4,23,4.7,0
767,3126369,2018-06-12,04:09,Carballo,ES,Europe,43.21,-8.69,56.26,100,6.93,90
768,2144528,2018-06-12,04:09,Warrnambool,AU,Oceania,-38.38,142.48,56.82,100,21.05,92
769,544318,2018-06-12,04:09,Kosa,RU,Europe,59.94,54.99,48.99,73,4.38,8
770,1645528,2018-06-12,04:09,Denpasar,ID,Asia,-8.65,115.22,77.61,88,2.48,68
771,1512019,2018-06-12,04:09,Aksarka,RU,Europe,66.56,67.8,41.88,100,3.6,44
772,140463,2018-06-12,04:09,Birjand,IR,Asia,32.86,59.22,78.8,15,11.41,20
773,1519030,2018-06-12,04:09,Shu,KZ,Asia,43.6,73.76,75.27,53,5.39,8
774,1492566,2018-06-12,04:09,Severo-Yeniseyskiy,RU,Europe,60.37,93.04,69.42,65,4.16,64
775,3936088,2018-06-12,04:09,Lluta,PE,South America,-16.02,-72.01,53.6,40,6.93,0
776,735418,2018-06-12,04:09,Limenaria,GR,Europe,40.63,24.58,64.4,77,5.82,0
777,1045114,2018-06-12,04:09,Inhambane,MZ,Africa,-23.87,35.38,70.14,97,11.88,80
778,5149222,2018-06-12,04:09,Canton,US,North America,40.8,-81.38,63.64,82,10.29,20
779,3354071,2018-06-12,04:09,Oranjemund,NA,Africa,-28.55,16.43,65.64,77,13.44,0
780,3870282,2018-06-12,04:09,Talcahuano,CL,South America,-36.72,-73.12,39.2,100,5.82,0
781,1492252,2018-06-12,04:09,Sheregesh,RU,Europe,52.93,87.98,68.7,69,3.15,24
782,1056151,2018-06-12,04:09,Soavinandriana,MG,Africa,-19.17,46.74,43.05,85,3.6,0
783,1805757,2018-06-12,04:09,Jimo,CN,Asia,36.39,120.46,80.6,51,13.42,0
784,2088659,2018-06-12,04:09,Panguna,PG,Oceania,-6.32,155.48,75.9,96,4.72,92
785,146400,2018-06-12,04:09,Dromolaxia,CY,Europe,34.88,33.59,73.29,83,3.36,20
786,3521070,2018-06-12,04:09,Pueblo Nuevo Solistahuacan,MX,North America,17.1,-92.88,75.2,94,3.36,75
787,3614970,2018-06-12,04:09,Azacualpa,HN,North America,15.34,-88.55,78.8,100,4.27,75
788,204953,2018-06-12,04:09,Tshikapa,CD,Africa,-6.42,20.79,64.47,80,3.49,0
789,3674161,2018-06-12,04:09,Murindo,CO,South America,6.98,-76.75,72.75,97,0.13,80
790,5864145,2018-06-12,04:09,Homer,US,North America,59.64,-151.54,57.2,71,12.1,75
791,588335,2018-06-12,04:09,Kardla,EE,Europe,58.44,26.57,60.8,93,5.82,64
792,3381041,2018-06-12,04:09,Mana,GF,South America,5.67,-53.78,74.91,98,2.59,92
793,3346821,2018-06-12,04:09,Ondjiva,AO,Africa,-17.07,15.73,45.12,44,6.96,0
794,152632,2018-06-12,04:09,Muheza,TZ,Africa,-5.18,38.79,71.31,100,7.85,92
795,3839307,2018-06-12,04:09,Rawson,AR,South America,-43.3,-65.11,30.18,98,7.07,8
796,6145890,2018-06-12,04:09,Shelburne,CA,North America,44.08,-80.2,54.16,76,2.24,1
797,1268814,2018-06-12,04:09,Joshimath,IN,Asia,30.57,79.57,36.75,84,0.92,0
798,2160517,2018-06-12,04:09,Launceston,AU,Oceania,-41.43,147.14,49.62,100,9.42,92
799,2229798,2018-06-12,04:09,Kousseri,CM,Africa,12.08,15.03,82.4,65,8.05,0
800,1525798,2018-06-12,04:09,Balkhash,KZ,Asia,46.84,74.98,70.41,80,3.15,0
801,6316343,2018-06-12,04:09,Alta Floresta,BR,South America,-9.87,-56.08,73.38,93,3.04,68
802,1266503,2018-06-12,04:09,Kiri Buru,IN,Asia,22.08,85.35,79.95,84,8.41,32
803,1728675,2018-06-12,04:09,Balabac,PH,Asia,7.99,117.06,85.53,99,7.18,20
804,5225631,2018-06-12,04:09,Westerly,US,North America,41.38,-71.83,53.01,87,6.17,1
805,2720679,2018-06-12,04:09,Bollnas,SE,Europe,61.35,16.39,51.24,69,9.31,48
806,1529376,2018-06-12,04:09,Korla,CN,Asia,41.76,86.15,74.55,41,3.94,68
807,2239862,2018-06-12,04:09,Malanje,AO,Africa,-9.54,16.35,50.25,83,2.71,0
808,1630789,2018-06-12,04:09,Pontianak,ID,Asia,-0.02,109.34,81.93,91,6.85,80
809,3590069,2018-06-12,04:09,San Jose,GT,North America,16.98,-89.9,84.36,49,10.76,48
810,4734350,2018-06-12,04:09,Stephenville,US,North America,32.22,-98.2,84.54,51,9.17,1
811,3577154,2018-06-12,04:09,Oranjestad,AW,North America,12.52,-70.03,80.6,83,14.99,40
812,1517060,2018-06-12,04:09,Zaysan,KZ,Asia,47.47,84.87,68.25,48,3.71,88
813,5859699,2018-06-12,04:09,College,US,North America,64.86,-147.8,50.65,76,10.29,90
814,5690366,2018-06-12,04:09,Mandan,US,North America,46.83,-100.89,64.31,24,9.17,90
815,3578441,2018-06-12,04:09,Saint-Francois,GP,North America,16.25,-61.27,78.8,83,6.93,90
816,573338,2018-06-12,04:09,Bolshoye Selo,RU,Europe,57.72,38.93,58.98,75,12.66,92
817,1799869,2018-06-12,04:09,Nanning,CN,Asia,22.83,108.3,86.0,79,2.24,20
818,6162949,2018-06-12,04:09,Terrace,CA,North America,54.52,-128.61,53.6,66,18.34,75
819,1261375,2018-06-12,04:09,Nimaparha,IN,Asia,20.07,86.02,84.2,83,9.17,90
820,5851349,2018-06-12,04:09,Nanakuli,US,North America,21.39,-158.15,81.95,61,10.29,20
821,1712206,2018-06-12,04:09,Guiuan,PH,Asia,11.03,125.72,86.52,98,9.98,0
822,1151464,2018-06-12,04:09,Phangnga,TH,Asia,8.45,98.53,85.59,74,4.7,75
823,336454,2018-06-12,04:09,Ginir,ET,Africa,7.14,40.71,59.61,85,7.18,12
824,1507116,2018-06-12,04:09,Dudinka,RU,Europe,69.41,86.18,53.85,84,4.38,88
825,3386467,2018-06-12,04:09,Terra Santa,BR,South America,-2.1,-56.49,80.4,74,4.5,0
826,2052479,2018-06-12,04:09,Zhuhai,CN,Asia,40.71,112.04,77.0,27,11.18,20
827,3394023,2018-06-12,04:09,Natal,BR,South America,-5.81,-35.21,73.4,83,8.05,20
828,1795632,2018-06-12,04:09,Shenjiamen,CN,Asia,29.96,122.3,76.89,83,6.06,0
829,4336153,2018-06-12,04:09,Opelousas,US,North America,30.53,-92.08,78.89,100,3.36,40
830,3899361,2018-06-12,04:09,Arica,CL,South America,-18.48,-70.32,59.61,72,2.24,90
831,233093,2018-06-12,04:09,Kaabong,UG,Africa,3.51,34.14,53.67,92,1.59,20
832,145724,2018-06-12,04:09,Lucapa,AO,Africa,-8.42,20.74,54.39,70,4.61,0
833,1489656,2018-06-12,04:09,Teya,RU,Europe,60.37,92.63,67.62,69,4.38,56
834,1779790,2018-06-12,04:09,Bentong,MY,Asia,3.52,101.91,89.6,70,9.17,75
835,3621607,2018-06-12,04:09,Santa Cruz,CR,North America,10.26,-85.58,77.0,94,4.7,0
836,3406263,2018-06-12,04:09,Barras,BR,South America,-4.24,-42.29,71.22,70,3.71,0
837,3680554,2018-06-12,04:09,Inza,CO,South America,2.55,-76.07,51.06,95,1.36,80
838,5039978,2018-06-12,04:09,Oakdale,US,North America,44.96,-92.97,68.99,77,11.32,1
839,772748,2018-06-12,04:09,Dzialdowo,PL,Europe,53.24,20.17,54.39,73,7.85,12
840,1732826,2018-06-12,04:09,Mersing,MY,Asia,2.43,103.84,85.89,86,9.53,88
841,2524181,2018-06-12,04:09,Melito di Porto Salvo,IT,Europe,37.92,15.77,70.95,52,1.12,0
842,2511649,2018-06-12,04:09,Rute,ES,Europe,37.33,-4.37,55.71,87,2.15,0
843,2122850,2018-06-12,04:09,Nikolayevsk-na-amure,RU,Europe,53.14,140.72,49.35,71,7.4,76
844,6149996,2018-06-12,04:09,Smithers,CA,North America,54.78,-127.17,55.4,43,9.17,75
845,5871146,2018-06-12,04:09,Palmer,US,North America,61.6,-149.11,50.95,81,8.05,90
846,3491161,2018-06-12,04:09,Bull Savanna,JM,North America,17.89,-77.59,75.99,79,5.39,92
847,292968,2018-06-12,04:09,Abu Dhabi,AE,Asia,24.47,54.37,86.0,66,6.93,0
848,5476825,2018-06-12,04:09,Los Alamos,US,North America,35.88,-106.3,73.98,9,3.71,1
849,3421319,2018-06-12,04:09,Nuuk,GL,North America,64.17,-51.74,33.8,100,9.17,12
850,934479,2018-06-12,04:09,Grand Gaube,MU,Africa,-20.01,57.66,69.8,88,6.93,75
851,2141714,2018-06-12,04:09,Bourail,NC,Oceania,-21.57,165.5,75.72,53,4.27,8
852,499717,2018-06-12,04:09,Rzhev,RU,Europe,56.26,34.33,59.52,84,12.1,64
853,1258455,2018-06-12,04:09,Jalali,IN,Asia,29.76,79.34,73.47,76,2.04,0
854,3445156,2018-06-12,04:09,Viamao,BR,South America,-30.08,-51.02,69.8,100,2.24,90
855,662455,2018-06-12,04:09,Voslobeni,RO,Europe,46.65,25.63,54.84,94,2.48,8
856,2454955,2018-06-12,04:09,Kolokani,ML,Africa,13.58,-8.03,80.94,61,10.54,0
857,2021031,2018-06-12,04:09,Kyren,RU,Europe,51.68,102.13,62.67,61,1.14,0
858,2339937,2018-06-12,04:09,Gusau,NG,Africa,12.17,6.66,75.45,78,4.72,44
859,2068110,2018-06-12,04:09,Kununurra,AU,Oceania,-15.77,128.74,89.6,31,10.29,0
860,1185098,2018-06-12,04:09,Gazipur,BD,Asia,24.0,90.42,86.0,84,3.36,75
861,3146487,2018-06-12,04:09,Maloy,NO,Europe,61.94,5.11,50.61,71,16.11,20
862,5648657,2018-06-12,04:09,Dillon,US,North America,45.22,-112.64,41.0,48,3.36,1
863,2119626,2018-06-12,04:09,Yagodnoye,RU,Europe,62.52,149.63,50.79,61,3.38,48
864,113659,2018-06-12,04:09,Tabas,IR,Asia,33.6,56.92,78.96,21,4.16,0
865,3792394,2018-06-12,04:09,Mapiripan,CO,South America,2.89,-72.13,70.95,99,2.15,88
866,2016307,2018-06-12,04:09,Solnechnyy,RU,Europe,50.72,136.64,59.61,63,4.61,48
867,2194098,2018-06-12,04:09,Ahipara,NZ,Oceania,-35.17,173.16,59.34,87,20.83,64
868,2026861,2018-06-12,04:09,Berdigestyakh,RU,Europe,62.1,126.7,57.72,62,3.6,92
869,104515,2018-06-12,04:09,Mecca,SA,Asia,21.43,39.83,87.8,55,1.48,0
870,2339150,2018-06-12,04:09,Idanre,NG,Africa,7.11,5.11,74.55,91,5.95,68
871,2281606,2018-06-12,04:09,Sinfra,CI,Africa,6.62,-5.91,73.02,95,2.59,32
872,1786538,2018-06-12,04:09,Yining,CN,Asia,29.04,114.56,77.25,69,2.93,92
873,1040652,2018-06-12,04:09,Maputo,MZ,Africa,-25.97,32.57,60.8,93,4.7,20
874,3464724,2018-06-12,04:09,Diamantino,BR,South America,-14.4,-56.44,70.68,86,3.71,0
875,516588,2018-06-12,04:09,Nyrob,RU,Europe,60.74,56.73,47.28,96,4.61,0
876,1630662,2018-06-12,04:09,Praya,ID,Asia,-8.71,116.27,84.2,70,13.87,75
877,3461620,2018-06-12,04:09,Ibia,BR,South America,-19.48,-46.54,63.48,83,4.94,36
878,553399,2018-06-12,04:09,Krasnovka,RU,Europe,48.37,40.26,57.45,53,5.39,0
879,543728,2018-06-12,04:09,Kotelnikovo,RU,Europe,47.63,43.14,57.9,45,6.29,0
880,4032369,2018-06-12,04:09,Pangai,TO,Oceania,-19.8,-174.35,80.6,83,9.17,40
881,233019,2018-06-12,04:09,Kaberamaido,UG,Africa,1.76,33.16,65.37,100,4.72,56
882,3887127,2018-06-12,04:09,Iquique,CL,South America,-20.22,-70.14,59.0,77,4.7,0
883,2016735,2018-06-12,04:09,Sherlovaya Gora,RU,Europe,50.53,116.31,65.1,93,10.76,88
884,964712,2018-06-12,04:09,Plettenberg Bay,ZA,Africa,-34.05,23.37,60.33,93,6.73,0
885,627905,2018-06-12,04:09,Horki,BY,Europe,54.29,30.98,60.8,87,6.71,90
886,3832899,2018-06-12,04:09,Viedma,AR,South America,-40.81,-62.99,41.7,90,4.38,68
887,3395981,2018-06-12,04:09,Maceio,BR,South America,-9.67,-35.74,71.6,94,2.24,20
888,902344,2018-06-12,04:09,Nakambala,ZM,Africa,-15.83,27.78,53.22,95,11.65,0
889,2653915,2018-06-12,04:09,Campbeltown,GB,Europe,55.43,-5.61,53.56,93,11.41,75
890,236524,2018-06-12,04:09,Rafai,CF,Africa,4.95,23.92,67.35,93,2.71,20
891,2439155,2018-06-12,04:09,Tanout,NE,Africa,14.97,8.88,70.05,40,6.06,0
892,3530200,2018-06-12,04:09,El Sauzal,MX,North America,18.18,-95.22,84.2,83,8.05,40
893,803494,2018-06-12,04:09,Orel-Izumrud,RU,Europe,43.46,39.92,68.0,64,11.18,20
894,3137405,2018-06-12,04:09,Sortland,NO,Europe,68.69,15.42,43.41,93,1.12,75
895,3461425,2018-06-12,04:09,Ilhabela,BR,South America,-23.78,-45.36,76.17,86,9.42,12
896,6119109,2018-06-12,04:09,Regina,CA,North America,50.45,-104.62,55.4,50,3.36,20
897,2644037,2018-06-12,04:09,Llangefni,GB,Europe,53.26,-4.31,53.6,93,8.05,56
898,6147353,2018-06-12,04:09,Sicamous,CA,North America,50.84,-118.99,53.6,62,4.7,75
899,1715015,2018-06-12,04:09,Dicabisagan,PH,Asia,17.08,122.42,84.0,93,12.21,64
900,1127110,2018-06-12,04:09,Sar-e Pul,AF,Asia,36.22,65.93,69.42,37,3.38,0
901,6127749,2018-06-12,04:09,Rosetown,CA,North America,51.55,-107.99,55.65,49,16.91,68
902,3397967,2018-06-12,04:09,Itaituba,BR,South America,-4.26,-55.99,75.0,91,1.92,0
903,1688696,2018-06-12,04:09,San Policarpo,PH,Asia,12.18,125.51,87.78,87,7.07,20
904,6541474,2018-06-12,04:09,Jesi,IT,Europe,43.52,13.24,71.01,88,2.24,20
905,2445704,2018-06-12,04:09,Diffa,NE,Africa,13.32,12.61,77.88,59,7.63,0
906,1487219,2018-06-12,04:09,Verkhoturye,RU,Europe,58.86,60.81,50.25,91,3.83,68
907,6121621,2018-06-12,04:09,Revelstoke,CA,North America,50.99,-118.19,53.6,62,4.7,75
908,1803331,2018-06-12,04:09,Linxia,CN,Asia,35.6,103.21,70.32,38,3.71,12
909,5692947,2018-06-12,04:09,Williston,US,North America,48.15,-103.62,58.86,33,6.93,1
910,1028918,2018-06-12,04:09,Pemba,MZ,Africa,-12.97,40.52,78.06,100,20.49,0
911,4635849,2018-06-12,04:09,Lawrenceburg,US,North America,35.24,-87.33,75.92,100,4.61,1
912,3678674,2018-06-12,04:09,Cartagena,CO,South America,9.69,-73.26,69.69,97,0.58,44
913,2077895,2018-06-12,04:09,Alice Springs,AU,Oceania,-23.7,133.88,69.8,30,12.75,8
914,3353383,2018-06-12,04:09,Rundu,NA,Africa,-17.91,19.77,41.79,50,6.73,0
915,3919353,2018-06-12,04:09,Concepcion,BO,South America,-16.14,-62.02,78.42,68,5.84,32
916,1580541,2018-06-12,04:10,Hoi An,VN,Asia,15.88,108.33,93.2,52,2.24,75
917,833357,2018-06-12,04:10,Ilinden,MK,Europe,41.99,21.58,62.6,93,2.24,0
918,6171633,2018-06-12,04:10,Ucluelet,CA,North America,48.94,-125.55,53.49,73,1.92,8
919,5374361,2018-06-12,04:10,Monterey,US,North America,36.6,-121.89,63.37,40,3.36,1
920,1794971,2018-06-12,04:10,Shitanjing,CN,Asia,39.23,106.34,86.88,11,2.37,0
921,4328010,2018-06-12,04:10,Houma,US,North America,29.6,-90.72,78.01,88,7.52,1
922,2037252,2018-06-12,04:10,Genhe,CN,Asia,50.78,121.52,64.92,73,4.16,44
923,4470244,2018-06-12,04:10,Havelock,US,North America,34.88,-76.9,70.5,100,11.41,90
924,340358,2018-06-12,04:10,Dabat,ET,Africa,12.98,37.77,57.18,91,1.36,56
925,260895,2018-06-12,04:10,Karpathos,GR,Europe,35.51,27.21,73.4,83,20.8,0
926,1691862,2018-06-12,04:10,Rapu-Rapu,PH,Asia,13.19,124.13,86.43,93,16.24,24
927,1498283,2018-06-12,04:10,Mugur-Aksy,RU,Europe,50.38,90.44,65.64,32,2.82,36
928,2992771,2018-06-12,04:10,Mont-de-Marsan,FR,Europe,43.89,-0.5,57.74,87,4.7,76
929,5545269,2018-06-12,04:10,Price,US,North America,39.6,-110.81,73.4,9,6.93,1
930,4433039,2018-06-12,04:10,Laurel,US,North America,31.69,-89.13,71.02,100,3.36,1
931,1265190,2018-06-12,04:10,Lala,IN,Asia,24.55,92.6,77.79,100,5.61,92
932,2027044,2018-06-12,04:10,Batagay,RU,Europe,67.65,134.64,69.78,33,9.19,48
933,3516376,2018-06-12,04:10,Tamiahua,MX,North America,21.28,-97.45,83.37,88,14.56,12
934,1608033,2018-06-12,04:10,Pak Phanang,TH,Asia,8.35,100.2,86.0,79,5.73,40
935,2109701,2018-06-12,04:10,Auki,SB,Oceania,-8.77,160.7,81.3,100,10.42,68
936,1636806,2018-06-12,04:10,Majene,ID,Asia,-3.54,118.97,82.83,99,12.44,44
937,342567,2018-06-12,04:10,Bedele,ET,Africa,8.46,36.35,58.08,99,2.93,92
938,3466901,2018-06-12,04:10,Carmo do Rio Claro,BR,South America,-20.97,-46.12,66.27,90,3.27,80
939,219057,2018-06-12,04:10,Beni,CD,Africa,0.49,29.47,60.87,87,3.04,0
940,1785738,2018-06-12,04:10,Yuncheng,CN,Asia,35.03,111.0,82.2,65,3.49,0
941,1784131,2018-06-12,04:10,Huilong,CN,Asia,31.15,106.5,77.52,87,4.16,0
942,6162951,2018-06-12,04:10,Terrace Bay,CA,North America,48.78,-87.1,47.82,68,18.25,0
943,515873,2018-06-12,04:10,Oktyabrskiy,RU,Europe,55.61,37.97,60.78,55,6.71,0
944,2093967,2018-06-12,04:10,Kimbe,PG,Oceania,-5.56,150.15,83.91,96,9.86,0
945,552465,2018-06-12,04:10,Kargopol,RU,Europe,61.51,38.95,59.7,76,17.47,48
946,531426,2018-06-12,04:10,Malaya Purga,RU,Europe,56.55,53.01,48.18,81,4.38,68
947,490040,2018-06-12,04:10,Sovetskiy,RU,Europe,56.76,48.47,49.62,67,8.75,20
948,3933986,2018-06-12,04:10,Orcopampa,PE,South America,-15.27,-72.34,9.84,71,1.92,0
949,3118547,2018-06-12,04:10,Lena,ES,Europe,43.1,-5.73,59.0,100,17.22,75
950,741100,2018-06-12,04:10,Ordu,TR,Asia,40.98,37.88,51.42,87,1.7,0
951,1275558,2018-06-12,04:10,Binika,IN,Asia,21.03,83.8,76.26,97,9.19,92
952,3453586,2018-06-12,04:10,Piranhas,BR,South America,-16.43,-51.82,71.58,72,6.06,0
953,533418,2018-06-12,04:10,Lukovetskiy,RU,Europe,64.29,41.92,48.2,100,6.71,90
954,1516527,2018-06-12,04:10,Zholymbet,KZ,Asia,51.74,71.71,71.58,45,10.42,32
955,3622537,2018-06-12,04:10,Parrita,CR,North America,9.52,-84.33,71.6,88,1.12,75
956,1791464,2018-06-12,04:10,Wenling,CN,Asia,28.38,121.38,82.11,73,3.04,48
957,2026696,2018-06-12,04:10,Bikin,RU,Europe,46.82,134.25,68.61,51,3.38,0
958,149172,2018-06-12,04:10,Urambo,TZ,Africa,-5.07,32.07,57.45,64,4.16,0
959,3934608,2018-06-12,04:10,Moquegua,PE,South America,-17.19,-70.93,49.8,78,2.15,0
960,2034754,2018-06-12,04:10,Shunyi,CN,Asia,40.13,116.65,84.2,51,4.47,0
961,2171722,2018-06-12,04:10,Charters Towers,AU,Oceania,-20.07,146.27,74.28,77,4.38,0
962,1560349,2018-06-12,04:10,Yen Bai,VN,Asia,21.7,104.87,85.44,78,2.48,88
963,3452900,2018-06-12,04:10,Porto Belo,BR,South America,-27.15,-48.54,69.17,93,11.41,20
964,359792,2018-06-12,04:10,Aswan,EG,Africa,24.09,32.9,86.0,15,1.12,0
965,662095,2018-06-12,04:10,Aanekoski,FI,Europe,62.6,25.73,50.0,61,9.17,0
966,2236967,2018-06-12,04:10,Soyo,AO,Africa,-6.13,12.37,67.98,98,3.27,8
967,3924679,2018-06-12,04:10,Vilhena,BR,South America,-12.74,-60.15,68.34,93,1.92,12
968,3533462,2018-06-12,04:10,Acapulco,MX,North America,16.86,-99.88,80.6,83,3.36,75
969,1492517,2018-06-12,04:10,Shadrinsk,RU,Europe,56.09,63.63,55.02,68,7.85,0
970,1644932,2018-06-12,04:10,Ende,ID,Asia,-8.84,121.65,79.23,100,6.17,44
971,2214433,2018-06-12,04:10,Nalut,LY,Africa,31.86,10.98,76.26,34,5.73,0
972,3835994,2018-06-12,04:10,Santa Rosa,AR,South America,-36.62,-64.29,44.85,94,13.0,92
973,1043893,2018-06-12,04:10,Lichinga,MZ,Africa,-13.3,35.25,53.6,100,11.41,75
974,4609116,2018-06-12,04:10,Saint Peters,US,North America,35.62,-89.39,80.6,78,4.7,1
975,567109,2018-06-12,04:10,Dankov,RU,Europe,53.25,39.16,58.53,54,12.55,48
976,867006,2018-06-12,04:10,Tashla,RU,Europe,53.71,49.75,53.6,62,4.47,0
977,2267226,2018-06-12,04:10,Lagos,PT,Europe,37.1,-8.67,60.8,82,6.93,0
978,1791779,2018-06-12,04:10,Wanning,CN,Asia,18.8,110.4,86.79,91,24.52,0
979,1174062,2018-06-12,04:10,Kharan,PK,Asia,28.58,65.42,82.74,21,3.83,0
980,2126710,2018-06-12,04:10,Beringovskiy,RU,Europe,63.05,179.32,41.7,96,3.27,0
981,3675504,2018-06-12,04:10,Manaure,CO,South America,11.78,-72.45,82.56,91,21.27,64
982,2179103,2018-06-12,04:10,Whitianga,NZ,Oceania,-36.83,175.7,58.71,100,29.89,88
983,3607992,2018-06-12,04:10,La Encarnacion,HN,North America,14.67,-89.08,62.94,98,1.7,88
984,2013465,2018-06-12,04:10,Verkhoyansk,RU,Europe,67.55,133.39,69.96,31,6.51,36
985,4915525,2018-06-12,04:10,Warrenville,US,North America,41.82,-88.17,66.36,93,9.17,90
986,2108857,2018-06-12,04:10,Gizo,SB,Oceania,-8.1,156.84,80.94,100,17.81,92
987,3419842,2018-06-12,04:10,Sisimiut,GL,North America,66.94,-53.67,31.17,100,2.26,44
988,3520161,2018-06-12,04:10,Sabancuy,MX,North America,18.97,-91.18,81.93,100,8.3,48
989,3466980,2018-06-12,04:10,Caravelas,BR,South America,-17.73,-39.27,76.98,99,12.77,12
990,2426370,2018-06-12,04:10,Oum Hadjer,TD,Africa,13.3,19.7,83.55,49,13.33,56
991,3874579,2018-06-12,04:10,Purranque,CL,South America,-40.91,-73.16,37.4,93,3.36,90
992,1272237,2018-06-12,04:10,Dumka,IN,Asia,24.27,87.25,79.32,100,5.5,88
993,884927,2018-06-12,04:10,Mutoko,ZW,Africa,-17.4,32.23,42.78,90,2.93,0
994,3471772,2018-06-12,04:10,Ararangua,BR,South America,-28.93,-49.49,69.78,85,3.6,88
995,2036237,2018-06-12,04:10,Langxiang,CN,Asia,46.95,128.87,65.28,78,2.71,68
996,2088122,2018-06-12,04:10,Port Moresby,PG,Oceania,-9.47,147.16,84.2,62,23.04,40
997,5850554,2018-06-12,04:10,Makakilo City,US,North America,21.35,-158.09,81.93,51,8.05,40
998,3996234,2018-06-12,04:10,Lazaro Cardenas,MX,North America,28.39,-105.62,82.4,19,3.36,5
999,3580279,2018-06-12,04:10,Gouyave,GD,North America,12.16,-61.73,80.6,83,16.11,40
1000,4791259,2018-06-12,04:10,Virginia Beach,US,North America,36.85,-75.98,65.05,82,11.41,90
1001,1650077,2018-06-12,04:10,Banyuwangi,ID,Asia,-8.21,114.37,78.87,90,7.63,92
1002,2082539,2018-06-12,04:10,Merauke,ID,Asia,-8.49,140.4,86.34,68,13.11,8
1003,5879400,2018-06-12,04:10,Anchorage,US,North America,61.22,-149.89,50.86,81,8.05,90
1004,140521,2018-06-12,04:10,Bijar,IR,Asia,35.87,47.6,48.18,86,2.48,0
1005,5887916,2018-06-12,04:10,Athabasca,CA,North America,54.72,-113.29,47.28,85,23.06,92
1006,3406429,2018-06-12,04:10,Barcarena,BR,South America,-1.51,-48.62,77.0,83,8.05,0
1007,3451190,2018-06-12,04:10,Rio de Janeiro,BR,South America,-22.91,-43.21,70.68,100,6.93,56
1008,3182633,2018-06-12,04:10,Avigliano,IT,Europe,40.73,15.72,64.4,88,10.29,0
1009,49747,2018-06-12,04:10,Xuddur,SO,Africa,4.12,43.89,73.02,75,14.23,8
1010,2021041,2018-06-12,04:10,Kyra,RU,Europe,49.58,111.97,53.94,98,4.72,92
1011,2377450,2018-06-12,04:10,Nouakchott,MR,Africa,18.08,-15.98,71.04,89,17.69,0
1012,3124132,2018-06-12,04:10,Cuenca,ES,Europe,40.07,-2.13,43.41,87,2.71,0
1013,2075720,2018-06-12,04:10,Broome,AU,Oceania,-17.97,122.23,87.8,27,9.17,0
1014,1528998,2018-06-12,04:10,Yumen,CN,Asia,40.29,97.04,82.65,20,4.16,12
1015,915471,2018-06-12,04:10,Kalabo,ZM,Africa,-15.0,22.67,45.57,59,6.62,0
1016,3445304,2018-06-12,04:10,Vera Cruz,BR,South America,-22.22,-49.82,68.88,71,6.85,0
1017,4272782,2018-06-12,04:10,Hays,US,North America,38.88,-99.33,75.54,65,11.41,1
1018,3470709,2018-06-12,04:10,Barra do Garcas,BR,South America,-15.89,-52.26,70.32,79,6.85,0
1019,3835869,2018-06-12,04:10,Santiago del Estero,AR,South America,-27.8,-64.26,62.04,42,20.27,88
1020,60019,2018-06-12,04:10,Eyl,SO,Africa,7.98,49.82,81.3,68,22.28,12
1021,2022129,2018-06-12,04:10,Kichera,RU,Europe,55.93,110.1,56.01,88,2.26,44
1022,2312895,2018-06-12,04:10,Mbandaka,CD,Africa,0.05,18.26,75.09,79,4.16,0
1023,2146219,2018-06-12,04:10,Hervey Bay,AU,Oceania,-25.3,152.85,70.32,84,1.92,0
1024,1494907,2018-06-12,04:10,Plast,RU,Europe,54.37,60.81,52.5,63,6.96,0
1025,2168305,2018-06-12,04:10,Dubbo,AU,Oceania,-32.25,148.6,68.0,40,17.22,80
1026,2014624,2018-06-12,04:10,Udachnyy,RU,Europe,66.42,112.4,66.72,66,3.38,8
1027,1623197,2018-06-12,04:10,Tual,ID,Asia,-5.67,132.75,80.4,100,12.21,68
1028,2304548,2018-06-12,04:10,Anloga,GH,Africa,5.79,0.9,78.8,94,3.36,20
1029,3453150,2018-06-12,04:10,Ponta Pora,BR,South America,-22.54,-55.73,75.27,77,12.77,0
1030,1026014,2018-06-12,04:10,Tete,MZ,Africa,-16.16,33.59,61.5,75,6.96,8
1031,6068416,2018-06-12,04:10,Mayo,CA,North America,63.59,-135.9,48.2,87,6.93,90
1032,1255482,2018-06-12,04:10,Sulya,IN,Asia,12.56,75.39,69.15,100,2.59,92
1033,5294810,2018-06-12,04:10,Flagstaff,US,North America,35.2,-111.65,74.5,11,3.36,1
1034,2012530,2018-06-12,04:10,Zhigansk,RU,Europe,66.77,123.37,64.65,46,7.07,92
1035,2460755,2018-06-12,04:10,Bafoulabe,ML,Africa,13.81,-10.83,80.4,70,4.83,12
1036,1626493,2018-06-12,04:10,Srandakan,ID,Asia,-7.94,110.25,81.84,66,6.73,92
1037,3520994,2018-06-12,04:10,Puerto Escondido,MX,North America,15.86,-97.07,81.57,100,7.74,32
1038,3998291,2018-06-12,04:10,Loreto,MX,North America,22.27,-101.99,58.71,96,3.27,80
1039,2179825,2018-06-12,04:10,Waitati,NZ,Oceania,-45.75,170.57,43.41,89,10.98,68
1040,5655959,2018-06-12,04:10,Hamilton,US,North America,46.25,-114.15,40.44,50,3.27,0
1041,3448632,2018-06-12,04:10,Sao Jose dos Pinhais,BR,South America,-25.53,-49.21,68.0,82,4.7,0
1042,6169587,2018-06-12,04:10,Truro,CA,North America,45.37,-63.3,46.4,61,2.82,5
1043,1716897,2018-06-12,04:10,Conversion,PH,Asia,15.9,121.13,74.55,97,3.27,92
1044,3378644,2018-06-12,04:10,Georgetown,GY,South America,6.8,-58.16,75.2,100,2.24,40
1045,5572400,2018-06-12,04:10,Susanville,US,North America,40.42,-120.65,73.4,27,5.82,1
1046,548410,2018-06-12,04:10,Malinovskiy,RU,Europe,54.15,34.53,62.94,50,14.34,64
1047,3495137,2018-06-12,04:10,Pedernales,DO,North America,18.04,-71.74,79.05,100,13.67,48
1048,1804442,2018-06-12,04:10,Lanxi,CN,Asia,29.21,119.46,82.74,74,3.38,12
1049,1213821,2018-06-12,04:10,Sigli,ID,Asia,5.38,95.96,85.98,75,3.38,92
1050,6111696,2018-06-12,04:10,Port-Cartier,CA,North America,50.03,-66.88,42.8,75,15.12,90
1051,3467272,2018-06-12,04:10,Capim Grosso,BR,South America,-11.38,-40.01,68.07,88,6.96,0
1052,2139521,2018-06-12,04:10,Noumea,NC,Oceania,-22.28,166.46,77.0,50,6.93,0
1053,1268865,2018-06-12,04:10,Jodhpur,IN,Asia,26.3,73.04,92.28,44,19.93,0
1054,1106643,2018-06-12,04:10,Quatre Cocos,MU,Africa,-20.21,57.76,69.8,88,6.93,75
1055,2966778,2018-06-12,04:10,Ballina,IE,Europe,54.11,-9.15,52.14,92,6.62,68
1056,2457163,2018-06-12,04:10,Gao,ML,Africa,16.28,-0.04,83.01,55,11.43,32
1057,3567834,2018-06-12,04:10,Baracoa,CU,North America,20.35,-74.5,78.42,100,8.97,76
1058,1623424,2018-06-12,04:10,Tondano,ID,Asia,1.3,124.91,89.6,62,4.7,40
1059,1252668,2018-06-12,04:10,Ziro,IN,Asia,27.54,93.82,82.4,88,9.17,90
1060,551891,2018-06-12,04:10,Neklyudovo,RU,Europe,54.88,41.31,59.25,62,12.21,76
1061,1856057,2018-06-12,04:10,Nakamura,JP,Asia,35.17,136.87,79.14,65,18.34,20
1062,1493162,2018-06-12,04:10,Salym,RU,Europe,60.06,71.48,58.62,72,4.38,56
1063,934862,2018-06-12,04:10,Sidvokodvo,SZ,Africa,-26.63,31.42,55.4,100,2.26,88
1064,2610806,2018-06-12,04:10,Vagur,FO,Europe,61.47,-6.81,49.53,100,10.31,88
1065,3178548,2018-06-12,04:10,Cagliari,IT,Europe,46.38,10.88,54.37,82,10.29,40
1066,2123628,2018-06-12,04:10,Magadan,RU,Europe,59.56,150.8,48.2,81,13.42,75
1067,4068590,2018-06-12,04:10,Huntsville,US,North America,34.73,-86.59,74.21,83,8.05,1
1068,3096765,2018-06-12,04:10,Kamien Pomorski,PL,Europe,53.97,14.77,53.6,87,6.93,75
1069,1062553,2018-06-12,04:10,Mahanoro,MG,Africa,-19.9,48.8,60.87,100,3.15,24
1070,2514651,2018-06-12,04:10,Los Llanos de Aridane,ES,Europe,28.66,-17.92,68.0,72,13.87,36
1071,3387928,2018-06-12,04:10,Senador Jose Porfirio,BR,South America,-2.59,-51.95,77.07,94,4.05,36
1072,3397963,2018-06-12,04:10,Itamaraca,BR,South America,-7.75,-34.83,73.9,74,10.29,75
1073,3470451,2018-06-12,04:10,Barretos,BR,South America,-20.55,-48.57,71.4,68,6.17,76
1074,691708,2018-06-12,04:10,Teplyk,UA,Europe,48.66,29.75,63.3,92,11.54,80
1075,489102,2018-06-12,04:10,Staraya Poltavka,RU,Europe,50.48,46.48,56.28,72,3.15,0
1076,1273874,2018-06-12,04:10,Kochi,IN,Asia,9.96,76.25,82.4,94,2.71,90
1077,2414545,2018-06-12,04:10,Tougue,GN,Africa,11.45,-11.68,65.64,96,3.15,12
1078,136399,2018-06-12,04:10,Delijan,IR,Asia,33.99,50.69,58.08,71,3.27,0
1079,2122783,2018-06-12,04:10,Nogliki,RU,Europe,51.8,143.14,43.77,86,16.46,80
1080,1507636,2018-06-12,04:10,Chunskiy,RU,Europe,56.08,99.63,74.82,53,3.38,32
1081,3451138,2018-06-12,04:10,Rio Grande,BR,South America,-32.03,-52.1,60.51,96,12.55,92
1082,5826027,2018-06-12,04:10,Gillette,US,North America,44.29,-105.5,50.0,71,5.82,1
1083,470905,2018-06-12,04:10,Vuktyl,RU,Europe,63.86,57.31,45.12,78,3.94,88
1084,2636790,2018-06-12,04:10,Stornoway,GB,Europe,58.21,-6.39,51.8,81,3.36,92
1085,3662927,2018-06-12,04:10,Pauini,BR,South America,-7.71,-67.0,73.92,94,2.37,0
1086,1500609,2018-06-12,04:10,Lesogorsk,RU,Europe,56.05,99.51,74.82,53,3.38,32
1087,239899,2018-06-12,04:10,Bria,CF,Africa,6.54,21.99,67.44,93,2.82,12
1088,952734,2018-06-12,04:10,Stanger,ZA,Africa,-29.34,31.29,53.94,83,6.17,0
1089,1724435,2018-06-12,04:10,Siocon,PH,Asia,11.03,124.04,88.14,91,7.63,8
1090,3369129,2018-06-12,04:10,Ceres,ZA,Africa,-33.37,19.31,33.96,66,2.48,0
1091,3665098,2018-06-12,04:10,Barcelos,BR,South America,-0.97,-62.93,76.8,91,5.5,12
1092,1636426,2018-06-12,04:10,Manggar,ID,Asia,-2.88,108.27,87.42,74,14.9,56
1093,2038572,2018-06-12,04:10,Yilan,CN,Asia,43.11,129.52,65.19,64,2.93,0
1094,3407980,2018-06-12,04:10,Alenquer,BR,South America,-1.95,-54.74,75.2,100,3.04,0
1095,702486,2018-06-12,04:10,Lyubar,UA,Europe,49.92,27.76,64.74,90,8.86,24
1096,1805833,2018-06-12,04:10,Jiexiu,CN,Asia,37.02,111.92,79.14,71,4.16,0
1097,2122614,2018-06-12,04:10,Ekhabi,RU,Europe,53.51,142.97,49.71,73,16.46,76
1098,1180729,2018-06-12,04:10,Dalbandin,PK,Asia,28.9,64.41,86.52,17,5.17,0
1099,2280376,2018-06-12,04:10,Touba,CI,Africa,8.28,-7.68,70.32,95,4.38,36
1100,5232741,2018-06-12,04:10,Watertown,US,North America,44.9,-97.12,67.01,100,6.93,90
1101,6177178,2018-06-12,04:10,Wawa,CA,North America,47.99,-84.77,62.58,32,7.07,0
1102,606531,2018-06-12,04:10,Boden,SE,Europe,65.83,21.69,48.2,61,9.17,0
1103,3691582,2018-06-12,04:11,Talara,PE,South America,-4.58,-81.27,67.08,86,5.5,20
1104,2680075,2018-06-12,04:11,Sandviken,SE,Europe,60.62,16.77,54.75,71,10.09,0
1105,1262062,2018-06-12,04:11,Naliya,IN,Asia,23.26,68.83,85.08,79,16.24,100
1106,2151187,2018-06-12,04:11,Roma,AU,Oceania,-26.57,148.79,70.32,62,6.4,12
1107,3402920,2018-06-12,04:11,Careiro da Varzea,BR,South America,-3.2,-59.81,76.95,83,3.36,0
1108,1267433,2018-06-12,04:11,Kattivakkam,IN,Asia,13.22,80.32,91.4,55,9.17,40
1109,793111,2018-06-12,04:11,Rudovci,RS,Europe,44.38,20.41,67.95,73,5.82,0
1110,1005040,2018-06-12,04:11,Eshowe,ZA,Africa,-28.89,31.46,43.68,91,2.15,0
1111,779554,2018-06-12,04:11,Honningsvag,NO,Europe,70.98,25.97,37.4,69,9.17,75
1112,2963295,2018-06-12,04:11,Killybegs,IE,Europe,54.63,-8.45,53.67,98,8.97,80
1113,5911440,2018-06-12,04:11,Burgeo,CA,North America,47.61,-57.61,42.87,96,18.48,0
1114,2312888,2018-06-12,04:11,Mbanza-Ngungu,CD,Africa,-5.25,14.87,64.02,91,4.61,0
1115,733286,2018-06-12,04:11,Belovo,BG,Europe,42.22,24.02,64.4,82,2.04,12
1116,3995236,2018-06-12,04:11,Mulege,MX,North America,26.88,-111.98,86.34,40,1.25,92
1117,1149878,2018-06-12,04:11,Wiang Sa,TH,Asia,8.64,99.37,85.12,89,5.82,75
1118,6690296,2018-06-12,04:11,Saint-Joseph,RE,Africa,-21.37,55.62,68.83,43,9.17,0
1119,1895695,2018-06-12,04:11,Kushima,JP,Asia,31.5,131.29,77.83,78,11.41,40
1120,315498,2018-06-12,04:11,Eregli,TR,Asia,37.51,34.05,57.45,90,3.71,88
1121,1488937,2018-06-12,04:11,Turgoyak,RU,Europe,55.15,60.12,48.72,74,3.71,24
1122,2014006,2018-06-12,04:11,Ussuriysk,RU,Europe,43.8,131.95,66.2,48,15.66,24
1123,1499053,2018-06-12,04:11,Megion,RU,Europe,61.04,76.11,55.4,82,4.47,0
1124,3081752,2018-06-12,04:11,Wladyslawowo,PL,Europe,54.79,18.4,55.4,82,8.05,75
1125,2033536,2018-06-12,04:11,Yakeshi,CN,Asia,49.28,120.73,69.15,75,11.21,8
1126,57000,2018-06-12,04:11,Hobyo,SO,Africa,5.35,48.53,77.88,79,17.47,32
1127,5404476,2018-06-12,04:11,Ukiah,US,North America,39.15,-123.21,77.0,33,6.93,1
1128,2120047,2018-06-12,04:11,Ust-Omchug,RU,Europe,61.13,149.63,44.94,82,5.28,92
1129,5985918,2018-06-12,04:11,Jasper,CA,North America,52.88,-118.08,38.37,43,4.38,56
1130,3421982,2018-06-12,04:11,Maniitsoq,GL,North America,65.42,-52.9,40.17,74,5.73,0
1131,3108087,2018-06-12,04:11,Tineo,ES,Europe,43.34,-6.41,59.0,100,17.22,75
1132,56335,2018-06-12,04:11,Jawhar,SO,Africa,2.78,45.5,74.1,95,10.2,68
1133,934649,2018-06-12,04:11,Cap Malheureux,MU,Africa,-19.98,57.61,69.8,88,6.93,75
1134,3833883,2018-06-12,04:11,Trelew,AR,South America,-43.25,-65.31,30.18,98,7.07,8
1135,3769988,2018-06-12,04:11,Sabanalarga,CO,South America,4.86,-73.04,64.02,87,1.7,56
1136,1255816,2018-06-12,04:11,Sompeta,IN,Asia,18.93,84.6,75.0,100,6.62,92
1137,1337612,2018-06-12,04:11,Dhidhdhoo,MV,Asia,6.88,73.1,80.76,100,15.79,80
1138,863061,2018-06-12,04:11,Usinsk,RU,Europe,66.0,57.56,43.14,87,6.17,76
1139,4149959,2018-06-12,04:11,Cape Canaveral,US,North America,28.41,-80.6,75.79,78,13.67,1
1140,332746,2018-06-12,04:11,Korem,ET,Africa,12.51,39.52,56.37,66,3.49,44
1141,3163146,2018-06-12,04:11,Andenes,NO,Europe,69.31,16.12,41.0,86,18.34,75
1142,2272491,2018-06-12,04:11,Zwedru,LR,Africa,6.07,-8.13,71.67,97,3.38,76
1143,1254709,2018-06-12,04:11,Tezu,IN,Asia,27.93,96.16,65.19,100,1.7,92
1144,1266668,2018-06-12,04:11,Khonsa,IN,Asia,26.99,95.51,72.93,99,2.04,92
1145,2980340,2018-06-12,04:11,Saintes,FR,Europe,45.74,-0.63,59.0,93,10.29,0
1146,1252653,2018-06-12,04:11,Zunheboto,IN,Asia,26.02,94.53,67.08,97,1.92,100
1147,2130421,2018-06-12,04:11,Date,JP,Asia,42.53,140.93,50.0,100,11.41,75
1148,1651531,2018-06-12,04:11,Ambon,ID,Asia,-3.7,128.18,80.94,98,5.5,92
1149,2220853,2018-06-12,04:11,Yokadouma,CM,Africa,3.52,15.05,70.5,90,3.38,76
1150,5293183,2018-06-12,04:11,Drexel Heights,US,North America,32.14,-111.03,94.39,4,6.93,1
1151,1604870,2018-06-12,04:11,Yala,TH,Asia,6.54,101.28,86.0,79,3.36,75
1152,482123,2018-06-12,04:11,Torbeyevo,RU,Europe,54.07,43.25,54.66,70,10.98,24
1153,4272340,2018-06-12,04:11,Great Bend,US,North America,38.36,-98.78,79.29,57,12.75,1
1154,1337617,2018-06-12,04:11,Muli,MV,Asia,2.92,73.57,81.12,100,11.54,24
1155,3909038,2018-06-12,04:11,Padilla,BO,South America,-19.31,-64.3,52.59,63,5.17,0
1156,1862599,2018-06-12,04:11,Hino,JP,Asia,35.66,139.41,73.6,73,4.7,90
1157,3733380,2018-06-12,04:11,Campoverde,PE,South America,-8.48,-74.81,71.6,94,2.24,75
1158,535839,2018-06-12,04:11,Leshukonskoye,RU,Europe,64.9,45.76,45.93,58,8.63,68
1159,5536630,2018-06-12,04:11,Cedar City,US,North America,37.68,-113.06,71.6,13,5.82,1
1160,5990579,2018-06-12,04:11,Kelowna,CA,North America,49.89,-119.5,59.68,62,5.82,90
1161,686863,2018-06-12,04:11,Zolotyy Potik,UA,Europe,48.91,25.34,59.0,100,4.47,0
1162,474354,2018-06-12,04:11,Verkhovazhye,RU,Europe,60.75,42.05,55.02,75,12.66,76
1163,2278158,2018-06-12,04:11,Buchanan,LR,Africa,5.88,-10.05,76.62,100,4.61,92
1164,3403687,2018-06-12,04:11,Camocim,BR,South America,-2.9,-40.84,76.08,80,12.21,0
1165,3115824,2018-06-12,04:11,Muros,ES,Europe,42.77,-9.06,55.4,100,10.29,90
1166,5803990,2018-06-12,04:11,Moses Lake,US,North America,47.13,-119.28,67.64,18,24.16,1
1167,2319133,2018-06-12,04:11,Warri,NG,Africa,5.52,5.75,75.27,98,3.49,92
1168,5386035,2018-06-12,04:11,Rancho Palos Verdes,US,North America,33.75,-118.37,73.08,77,10.29,5
1169,1255927,2018-06-12,04:11,Siwan,IN,Asia,26.22,84.36,79.32,100,6.85,92
1170,645765,2018-06-12,04:11,Muhos,FI,Europe,64.81,26.0,44.6,65,13.87,0
1171,328880,2018-06-12,04:11,Sendafa,ET,Africa,9.16,39.02,44.4,82,2.71,20
1172,2018964,2018-06-12,04:11,Novobureyskiy,RU,Europe,49.8,129.88,67.08,63,5.39,44
1173,218680,2018-06-12,04:11,Boende,CD,Africa,-0.28,20.88,75.72,65,2.59,48
1174,5993072,2018-06-12,04:11,Kitimat,CA,North America,54.02,-128.69,53.6,66,18.34,75
1175,3359638,2018-06-12,04:11,Walvis Bay,NA,Africa,-22.95,14.51,68.0,20,13.87,0
1176,5710360,2018-06-12,04:11,Winnemucca,US,North America,40.97,-117.74,66.2,16,4.7,1
1177,3892454,2018-06-12,04:11,Diego de Almagro,CL,South America,-26.39,-70.05,38.55,86,2.04,0
1178,4145381,2018-06-12,04:11,Wilmington,US,North America,39.75,-75.55,53.15,76,3.36,20
1179,5495292,2018-06-12,04:11,Truth or Consequences,US,North America,33.13,-107.25,87.8,3,6.93,1
1180,2544571,2018-06-12,04:11,Kenitra,MA,Africa,34.26,-6.57,60.8,82,1.7,75
1181,1493423,2018-06-12,04:11,Russkaya Polyana,RU,Europe,53.78,73.88,72.93,43,17.36,0
1182,4256085,2018-06-12,04:11,Connersville,US,North America,39.64,-85.14,70.21,88,6.93,90
1183,2332504,2018-06-12,04:11,Lafiagi,NG,Africa,8.85,5.42,78.15,80,7.29,12
1184,244878,2018-06-12,04:11,Biltine,TD,Africa,14.53,20.93,82.74,50,10.2,12
1185,478297,2018-06-12,04:11,Usogorsk,RU,Europe,63.43,48.71,46.29,55,5.06,0
1186,3674735,2018-06-12,04:11,Miraflores,CO,South America,5.2,-73.14,49.71,99,1.14,48
1187,1263911,2018-06-12,04:11,Mandalgarh,IN,Asia,25.2,75.09,83.91,70,12.77,0
1188,3834601,2018-06-12,04:11,Tartagal,AR,South America,-22.52,-63.8,56.64,83,5.28,0
1189,3467684,2018-06-12,04:11,Campos do Jordao,BR,South America,-22.74,-45.59,61.52,88,2.24,40
1190,1502697,2018-06-12,04:11,Kondinskoye,RU,Europe,59.65,67.41,56.73,60,4.83,0
1191,1795579,2018-06-12,04:11,Shenxian,CN,Asia,36.24,115.67,90.75,55,8.3,0
1192,472113,2018-06-12,04:11,Vorobyevka,RU,Europe,50.65,40.92,54.3,65,6.17,0
1193,5233742,2018-06-12,04:11,Bennington,US,North America,42.88,-73.2,54.16,81,3.38,1
1194,344420,2018-06-12,04:11,Aksum,ET,Africa,14.12,38.72,52.86,87,2.04,0
1195,1261497,2018-06-12,04:11,Netarhat,IN,Asia,23.45,84.31,81.3,84,5.28,56
1196,5889745,2018-06-12,04:11,Hauterive,CA,North America,49.18,-68.27,45.7,69,2.24,1
1197,739600,2018-06-12,04:11,Sinop,TR,Asia,42.03,35.15,69.78,98,7.63,0
1198,6452235,2018-06-12,04:11,Ajaccio,FR,Europe,41.93,8.74,68.9,83,2.24,90
1199,2385535,2018-06-12,04:11,Kouango,CF,Africa,4.99,19.98,74.73,89,2.82,80
1200,3374333,2018-06-12,04:11,Praia,CV,Africa,14.92,-23.51,69.8,77,16.11,20
1201,923058,2018-06-12,04:11,Kambove,CD,Africa,-10.88,26.6,52.5,71,7.4,0
1202,526558,2018-06-12,04:11,Millerovo,RU,Europe,48.92,40.39,56.37,56,5.39,0
1203,237379,2018-06-12,04:11,Ndele,CF,Africa,8.41,20.65,74.37,83,7.74,48
1204,359796,2018-06-12,04:11,Suez,EG,Africa,29.97,32.54,70.05,79,3.04,8
1205,932960,2018-06-12,04:11,Werda,BW,Africa,-25.27,23.28,42.33,75,5.28,0
1206,2636638,2018-06-12,04:11,Stromness,GB,Europe,58.97,-3.3,50.83,93,12.75,80
1207,3447059,2018-06-12,04:11,Taiobeiras,BR,South America,-15.81,-42.23,64.47,94,3.71,76
1208,3587498,2018-06-12,04:11,Acajutla,SV,North America,13.59,-89.83,100.4,50,3.36,20
1209,1607280,2018-06-12,04:11,Prachin Buri,TH,Asia,14.05,101.37,89.22,77,12.21,8
1210,505820,2018-06-12,04:11,Povenets,RU,Europe,62.85,34.83,52.41,93,7.29,24
1211,477579,2018-06-12,04:11,Uyemskiy,RU,Europe,64.47,40.85,48.2,100,6.71,90
1212,3456642,2018-06-12,04:11,Mozarlandia,BR,South America,-14.74,-50.57,67.62,86,1.48,0
1213,5024237,2018-06-12,04:11,Callaway,US,North America,46.98,-95.91,54.3,93,12.44,90
1214,3146487,2018-06-12,04:11,Raudeberg,NO,Europe,61.99,5.14,50.61,71,16.11,20
1215,6179652,2018-06-12,04:11,Weyburn,CA,North America,49.67,-103.85,55.56,55,11.88,8
1216,176555,2018-06-12,04:11,Kawambwa,ZM,Africa,-9.8,29.07,64.02,58,6.51,0
1217,577922,2018-06-12,04:11,Belomorsk,RU,Europe,64.52,34.76,49.44,83,12.33,24
1218,5789920,2018-06-12,04:11,Valley,US,North America,48.18,-117.72,59.05,37,7.63,1
1219,5274867,2018-06-12,04:11,Sturgeon Bay,US,North America,44.83,-87.38,60.8,59,6.93,1
1220,3996893,2018-06-12,04:11,Caborca,MX,North America,30.58,-111.1,79.68,19,5.5,0
1221,2156927,2018-06-12,04:11,Moree,AU,Oceania,-29.46,149.84,63.3,67,10.98,8
1222,866062,2018-06-12,04:11,Iskateley,RU,Europe,67.68,53.15,41.25,83,10.09,48
1223,1563281,2018-06-12,04:11,Tuy Hoa,VN,Asia,13.08,109.3,85.26,77,18.03,80
1224,3393106,2018-06-12,04:11,Paragominas,BR,South America,-3.0,-47.35,79.68,63,5.73,0
1225,2159220,2018-06-12,04:11,Mackay,AU,Oceania,-21.15,149.2,78.8,65,10.29,0
1226,3572375,2018-06-12,04:11,Freeport,BS,North America,26.54,-78.7,81.03,98,11.43,24
1227,3441354,2018-06-12,04:11,Pando,UY,South America,-34.72,-55.96,55.4,93,9.17,90
1228,2186111,2018-06-12,04:11,Ngunguru,NZ,Oceania,-35.62,174.5,61.41,94,25.75,0
1229,3933024,2018-06-12,04:11,Paramonga,PE,South America,-10.68,-77.82,60.78,100,13.67,88
1230,2033413,2018-06-12,04:11,Cuiluan,CN,Asia,47.72,128.65,69.33,68,3.49,48
1231,2164025,2018-06-12,04:11,Hamilton,AU,Oceania,-37.74,142.02,53.13,99,20.49,88
1232,286987,2018-06-12,04:11,Nizwa,OM,Asia,22.93,57.53,86.52,17,9.86,0
1233,2345094,2018-06-12,04:11,Daura,NG,Africa,13.04,8.32,78.24,67,9.64,24
1234,2242885,2018-06-12,04:11,Camabatela,AO,Africa,-8.19,15.37,49.44,75,2.93,0
1235,2035707,2018-06-12,04:11,Mujiayingzi,CN,Asia,42.12,118.78,74.37,49,5.95,0
1236,2662689,2018-06-12,04:11,Visby,SE,Europe,57.64,18.3,57.2,93,9.17,92
1237,1651591,2018-06-12,04:11,Amahai,ID,Asia,-3.31,129.0,78.87,100,6.85,88
1238,974719,2018-06-12,04:11,Molteno,ZA,Africa,-31.4,26.36,24.96,60,4.83,8
1239,4001056,2018-06-12,04:11,La Orilla,MX,North America,18.0,-102.23,74.46,100,5.28,92
1240,3402000,2018-06-12,04:11,Codo,BR,South America,-4.46,-43.89,76.71,48,4.16,0
1241,516539,2018-06-12,04:11,Nyuksenitsa,RU,Europe,60.41,44.24,53.04,75,13.89,68
1242,3372760,2018-06-12,04:11,Praia da Vitoria,PT,Europe,38.73,-27.07,68.0,88,6.17,40
1243,2274895,2018-06-12,04:11,Monrovia,LR,Africa,6.33,-10.8,75.0,96,3.71,92
1244,3515690,2018-06-12,04:11,Progreso,MX,North America,20.25,-99.19,58.17,100,2.82,88
1245,2701680,2018-06-12,04:11,Karlstad,SE,Europe,59.38,13.5,51.8,81,11.41,32
1246,1490796,2018-06-12,04:11,Strezhevoy,RU,Europe,60.73,77.6,55.4,82,4.47,0
1247,3170069,2018-06-12,04:11,Porto Torres,IT,Europe,40.84,8.4,68.0,94,3.36,40
1248,1783956,2018-06-12,04:11,Yatou,CN,Asia,33.81,104.32,63.84,66,1.92,56
1249,2396253,2018-06-12,04:11,Tchibanga,GA,Africa,-2.92,11.0,66.72,99,1.92,0
1250,2434584,2018-06-12,04:11,Bousso,TD,Africa,10.48,16.71,79.32,66,7.18,56
1251,151567,2018-06-12,04:11,Nguruka,TZ,Africa,-5.11,31.04,59.97,66,5.17,0
1252,2701715,2018-06-12,04:11,Karlskoga,SE,Europe,59.33,14.52,53.44,93,8.05,75
1253,3373329,2018-06-12,04:11,Arrifes,PT,Europe,37.77,-25.7,66.2,93,3.36,40
1254,3172890,2018-06-12,04:11,Montegrotto Terme,IT,Europe,45.33,11.79,71.04,78,4.7,20
1255,115781,2018-06-12,04:11,Shahr-e Babak,IR,Asia,30.12,55.12,63.21,21,2.59,0
1256,1848373,2018-06-12,04:11,Fukue,JP,Asia,35.03,136.69,79.34,65,18.34,20
1257,2027042,2018-06-12,04:11,Batagay-Alyta,RU,Europe,67.8,130.41,63.39,43,4.72,68
