,cityID,date,time,city,country,continent,latitude,longitude,temperature,humidity,windSpeed,cloudiness
0,3391889,2018-06-07,06:46,Pitimbu,BR,South America,-7.47,-34.81,75.2,94,5.82,75
1,2068110,2018-06-07,06:46,Kununurra,AU,Oceania,-15.77,128.74,89.6,13,9.17,0
2,2110227,2018-06-07,06:46,Butaritari,KI,Oceania,3.07,172.79,84.17,100,10.96,20
3,1006984,2018-06-07,06:46,East London,ZA,Africa,-33.02,27.91,71.48,99,14.99,0
4,3833367,2018-06-07,06:46,Ushuaia,AR,South America,-54.81,-68.31,18.56,100,2.57,0
5,2126199,2018-06-07,06:46,Cherskiy,RU,Europe,68.75,161.3,40.79,72,6.71,0
6,6943599,2018-06-07,06:46,Dalhousie,CA,North America,48.06,-66.37,35.6,100,3.36,5
7,2206939,2018-06-07,06:46,Bluff,NZ,Oceania,-46.6,168.33,50.6,96,17.34,92
8,3369157,2018-06-07,06:46,Cape Town,ZA,Africa,-33.93,18.42,56.45,100,13.42,20
9,1490085,2018-06-07,06:46,Tarko-Sale,RU,Europe,64.92,77.78,76.16,67,18.79,0
10,2126710,2018-06-07,06:46,Beringovskiy,RU,Europe,63.05,179.32,37.73,91,5.7,68
11,4030556,2018-06-07,06:46,Rikitea,PF,Oceania,-23.12,-134.97,73.01,100,19.69,88
12,4031637,2018-06-07,06:46,Lavrentiya,RU,Europe,65.58,-170.99,37.82,78,15.21,20
13,3917939,2018-06-07,06:46,Entre Rios,BO,South America,-21.53,-64.17,40.88,93,1.68,44
14,3573061,2018-06-07,06:46,Saint George,BM,North America,32.38,-64.68,77.0,88,11.41,75
15,2123814,2018-06-07,06:46,Leningradskiy,RU,Europe,69.38,178.42,31.25,100,15.88,68
16,964712,2018-06-07,06:46,Plettenberg Bay,ZA,Africa,-34.05,23.37,68.33,72,14.2,48
17,2640967,2018-06-07,06:46,Omagh,GB,Europe,54.6,-7.3,59.0,77,4.7,0
18,155334,2018-06-07,06:46,Magole,TZ,Africa,-6.37,37.37,68.0,82,4.14,75
19,4407665,2018-06-07,06:46,Kodiak,US,North America,39.95,-94.76,69.8,77,8.05,75
20,6165406,2018-06-07,06:46,Thompson,CA,North America,55.74,-97.86,46.4,93,4.7,40
21,5882953,2018-06-07,06:46,Aklavik,CA,North America,68.22,-135.01,35.6,84,6.93,90
22,3354077,2018-06-07,06:46,Opuwo,NA,Africa,-18.06,13.84,45.92,58,7.61,0
23,3419842,2018-06-07,06:46,Sisimiut,GL,North America,66.94,-53.67,34.58,93,7.72,92
24,5983720,2018-06-07,06:46,Iqaluit,CA,North America,63.75,-68.52,30.2,68,10.29,90
25,2075265,2018-06-07,06:46,Busselton,AU,Oceania,-33.64,115.35,58.34,100,5.59,80
26,2108502,2018-06-07,06:46,Honiara,SB,Oceania,-9.43,159.96,79.13,85,0.89,56
27,3380290,2018-06-07,06:46,Sinnamary,GF,South America,5.38,-52.96,79.31,100,11.74,88
28,2015306,2018-06-07,06:46,Tiksi,RU,Europe,71.64,128.87,49.25,74,13.76,0
29,3868308,2018-06-07,06:46,Vicuna,CL,South America,-30.03,-70.71,48.2,76,5.82,0
30,4032420,2018-06-07,06:46,Neiafu,TO,Oceania,-18.65,-173.98,77.0,88,8.05,75
31,2126123,2018-06-07,06:46,Chokurdakh,RU,Europe,70.62,147.9,36.02,92,4.59,8
32,2173125,2018-06-07,06:46,Burnie,AU,Oceania,-41.05,145.91,59.06,94,26.51,64
33,1015776,2018-06-07,06:46,Bredasdorp,ZA,Africa,-34.53,20.04,59.06,96,20.13,24
34,3573197,2018-06-07,06:46,Hamilton,BM,North America,32.3,-64.78,77.0,88,11.41,75
35,1106677,2018-06-07,06:46,Bambous Virieux,MU,Africa,-20.34,57.76,82.4,65,14.99,40
36,3355672,2018-06-07,06:46,Luderitz,NA,Africa,-26.65,15.16,56.99,63,4.03,12
37,3370903,2018-06-07,06:46,Jamestown,SH,Africa,-15.94,-5.72,69.32,100,14.99,56
38,2020121,2018-06-07,06:46,Mayya,RU,Europe,61.74,130.28,71.6,43,4.47,0
39,6164499,2018-06-07,06:46,The Pas,CA,North America,53.82,-101.24,58.07,62,7.61,44
40,2031964,2018-06-07,06:46,Darhan,MN,Asia,49.49,105.92,69.14,59,3.91,0
41,6167817,2018-06-07,06:46,Torbay,CA,North America,47.66,-52.73,35.6,100,9.17,90
42,3466980,2018-06-07,06:46,Caravelas,BR,South America,-17.73,-39.27,77.06,98,13.09,0
43,2155415,2018-06-07,06:46,New Norfolk,AU,Oceania,-42.78,147.06,60.8,55,16.11,75
44,1650434,2018-06-07,06:46,Bambanglipuro,ID,Asia,-7.95,110.28,91.01,52,5.37,8
45,3034640,2018-06-07,06:46,Bastia,FR,Europe,42.7,9.45,70.63,78,2.24,75
46,2112802,2018-06-07,06:46,Hasaki,JP,Asia,35.73,140.83,79.75,57,10.29,20
47,1513087,2018-06-07,06:46,Nurota,UZ,Asia,40.56,65.69,98.6,20,11.41,8
48,4020109,2018-06-07,06:46,Atuona,PF,Oceania,-9.8,-139.03,80.93,100,16.67,80
49,2180815,2018-06-07,06:46,Tuatapere,NZ,Oceania,-46.13,167.69,45.74,100,11.18,8
50,3440777,2018-06-07,06:46,Rocha,UY,South America,-34.48,-54.34,46.19,89,11.74,0
51,964432,2018-06-07,06:46,Port Alfred,ZA,Africa,-33.59,26.89,69.95,63,12.86,0
52,4032243,2018-06-07,06:46,Vaini,TO,Oceania,-21.2,-175.2,73.4,94,2.24,90
53,3874787,2018-06-07,06:46,Punta Arenas,CL,South America,-53.16,-70.91,30.2,92,3.36,40
54,3421193,2018-06-07,06:46,Paamiut,GL,North America,61.99,-49.67,37.46,94,40.38,92
55,1899102,2018-06-07,06:46,Nagato,JP,Asia,34.35,131.14,73.4,83,6.93,75
56,2272010,2018-06-07,06:46,Alferrarede,PT,Europe,39.48,-8.18,59.0,93,4.7,75
57,3412093,2018-06-07,06:46,Vestmannaeyjar,IS,Europe,63.44,-20.27,46.37,95,6.15,68
58,5983607,2018-06-07,06:46,Inuvik,CA,North America,68.36,-133.71,33.4,89,6.93,90
59,964420,2018-06-07,06:46,Port Elizabeth,ZA,Africa,-33.92,25.57,59.0,38,6.93,0
60,933995,2018-06-07,06:46,Souillac,MU,Africa,-20.52,57.52,82.4,65,14.99,40
61,4035715,2018-06-07,06:46,Avarua,CK,Oceania,-21.21,-159.78,75.2,83,2.24,20
62,2077963,2018-06-07,06:46,Albany,AU,Oceania,-35.02,117.88,59.51,60,12.75,36
63,3366880,2018-06-07,06:46,Hermanus,ZA,Africa,-34.42,19.24,48.26,66,6.04,8
64,5855927,2018-06-07,06:46,Hilo,US,North America,19.71,-155.08,61.11,88,3.36,90
65,5924351,2018-06-07,06:46,Clyde River,CA,North America,70.47,-68.59,28.28,95,28.52,92
66,2094342,2018-06-07,06:46,Kavieng,PG,Oceania,-2.57,150.8,83.09,100,5.93,56
67,2411397,2018-06-07,06:46,Georgetown,SH,Africa,-7.93,-14.42,78.59,100,18.01,76
68,3896218,2018-06-07,06:46,Castro,CL,South America,-42.48,-73.76,42.41,95,4.59,100
69,5969025,2018-06-07,06:46,Haines Junction,CA,North America,60.75,-137.51,43.76,66,2.13,20
70,5367788,2018-06-07,06:46,Lompoc,US,North America,34.64,-120.46,55.45,87,5.82,90
71,535183,2018-06-07,06:46,Linda,RU,Europe,56.62,44.1,53.6,50,13.42,20
72,1799869,2018-06-07,06:46,Nanning,CN,Asia,22.83,108.3,91.4,55,11.18,40
73,3932145,2018-06-07,06:46,Pisco,PE,South America,-13.71,-76.2,62.6,93,5.82,90
74,1302439,2018-06-07,06:46,Pakokku,MM,Asia,21.33,95.09,84.53,86,10.4,56
75,2126785,2018-06-07,06:46,Belaya Gora,RU,Europe,68.54,146.19,66.17,28,4.92,0
76,2030065,2018-06-07,06:46,Mandalgovi,MN,Asia,45.76,106.27,68.42,37,10.4,0
77,2134814,2018-06-07,06:46,Sola,VU,Oceania,-13.88,167.55,80.6,94,5.26,75
78,4252975,2018-06-07,06:46,Barrow,US,North America,39.51,-90.4,72.23,73,3.36,1
79,1637001,2018-06-07,06:46,Biak,ID,Asia,-0.91,122.88,79.31,96,4.36,92
80,1507390,2018-06-07,06:46,Dikson,RU,Europe,73.51,80.55,33.32,96,23.94,0
81,3947956,2018-06-07,06:46,Ambo,PE,South America,-10.13,-76.2,28.37,74,2.91,0
82,1693839,2018-06-07,06:46,Pilar,PH,Asia,14.67,120.55,87.22,89,5.82,75
83,509483,2018-06-07,06:46,Pinega,RU,Europe,64.7,43.39,45.74,57,7.83,76
84,546105,2018-06-07,06:46,Nikolskoye,RU,Europe,59.7,30.79,53.6,54,15.66,40
85,1150965,2018-06-07,06:46,Ranong,TH,Asia,9.96,98.62,87.8,74,9.17,75
86,2964782,2018-06-07,06:46,Dingle,IE,Europe,52.14,-10.27,57.47,99,3.38,56
87,108410,2018-06-07,06:46,Riyadh,SA,Asia,24.63,46.72,102.2,13,4.7,0
88,3899695,2018-06-07,06:46,Ancud,CL,South America,-41.87,-73.83,38.45,87,4.81,80
89,370481,2018-06-07,06:46,Marawi,SD,Africa,18.48,31.82,85.43,20,4.59,0
90,645765,2018-06-07,06:46,Muhos,FI,Europe,64.81,26.0,41.0,93,6.93,92
91,1623197,2018-06-07,06:46,Tual,ID,Asia,-5.67,132.75,82.55,96,14.2,48
92,6068416,2018-06-07,06:46,Mayo,CA,North America,63.59,-135.9,48.2,87,8.05,75
93,3451138,2018-06-07,06:46,Rio Grande,BR,South America,-32.03,-52.1,47.09,100,13.42,20
94,784068,2018-06-07,06:46,Zabalj,RS,Europe,45.37,20.06,71.6,73,3.36,0
95,3386213,2018-06-07,06:46,Touros,BR,South America,-5.2,-35.46,76.88,96,7.72,48
96,962367,2018-06-07,06:46,Richards Bay,ZA,Africa,-28.77,32.06,52.04,97,3.91,0
97,1282256,2018-06-07,06:46,Hithadhoo,MV,Asia,-0.6,73.08,82.46,100,9.62,0
98,3466165,2018-06-07,06:46,Cidreira,BR,South America,-30.17,-50.22,47.18,98,6.71,76
99,2122090,2018-06-07,06:46,Pevek,RU,Europe,69.7,170.27,31.25,97,11.41,56
100,5880568,2018-06-07,06:46,Bethel,US,North America,60.79,-161.76,62.6,51,17.22,1
101,2527089,2018-06-07,06:46,Tiznit,MA,Africa,29.7,-9.73,59.24,94,3.36,0
102,4732862,2018-06-07,06:46,Nome,US,North America,30.04,-94.42,75.18,88,5.14,1
103,1853371,2018-06-07,06:46,Ryotsu,JP,Asia,38.08,138.43,73.4,78,10.29,40
104,4031574,2018-06-07,06:46,Provideniya,RU,Europe,64.42,-173.23,46.4,70,3.91,0
105,4944903,2018-06-07,06:46,Nantucket,US,North America,41.28,-70.1,48.56,87,8.05,1
106,3893726,2018-06-07,06:46,Constitucion,CL,South America,-35.33,-72.42,46.91,100,10.51,0
107,2167426,2018-06-07,06:46,Emerald,AU,Oceania,-23.53,148.16,74.18,27,11.52,56
108,1489656,2018-06-07,06:46,Teya,RU,Europe,60.37,92.63,68.15,45,3.36,0
109,3374346,2018-06-07,06:46,Ponta do Sol,CV,Africa,17.2,-25.09,71.39,100,13.53,8
110,3533462,2018-06-07,06:46,Acapulco,MX,North America,16.86,-99.88,84.2,74,4.7,40
111,1106643,2018-06-07,06:46,Quatre Cocos,MU,Africa,-20.21,57.76,82.4,65,14.99,40
112,935215,2018-06-07,06:46,Saint-Philippe,RE,Africa,-21.36,55.77,82.4,58,5.82,0
113,3652764,2018-06-07,06:46,Puerto Ayora,EC,South America,-0.74,-90.35,72.65,100,12.97,56
114,3347019,2018-06-07,06:46,Namibe,AO,Africa,-15.19,12.15,73.91,91,5.14,0
115,80509,2018-06-07,06:46,Bardiyah,LY,Africa,31.76,25.09,76.34,81,4.7,0
116,2038087,2018-06-07,06:46,ChengDe,CN,Asia,40.97,117.93,82.28,34,4.59,0
117,3652567,2018-06-07,06:46,San Cristobal,EC,South America,-1.02,-79.44,57.26,97,1.57,32
118,1486910,2018-06-07,06:47,Komsomolskiy,RU,Europe,67.55,63.78,35.03,92,15.21,0
119,1263900,2018-06-07,06:47,Mandapam,IN,Asia,9.28,79.12,83.99,100,27.18,56
120,3894426,2018-06-07,06:47,Coihaique,CL,South America,-45.58,-72.07,30.78,86,5.82,0
121,2374583,2018-06-07,06:47,Bubaque,GW,Africa,11.28,-15.83,79.4,100,11.52,0
122,3401148,2018-06-07,06:47,Cururupu,BR,South America,-1.82,-44.87,78.5,85,6.38,24
123,6185377,2018-06-07,06:47,Yellowknife,CA,North America,62.45,-114.38,41.0,70,4.7,75
124,2120591,2018-06-07,06:47,Tilichiki,RU,Europe,60.47,166.1,51.95,72,2.91,8
125,2017155,2018-06-07,06:47,Saskylakh,RU,Europe,71.97,114.09,61.49,72,6.6,0
126,2163355,2018-06-07,06:47,Hobart,AU,Oceania,-42.88,147.33,60.8,55,16.11,75
127,3988515,2018-06-07,06:47,Rodeo,MX,North America,25.18,-104.56,77.69,23,5.59,88
128,3905775,2018-06-07,06:47,San Carlos,BO,South America,-17.4,-63.73,59.33,90,3.91,92
129,2033675,2018-06-07,06:47,Xinmin,CN,Asia,42.0,122.83,77.0,61,11.18,20
130,3521972,2018-06-07,06:47,Panaba,MX,North America,21.28,-88.27,77.33,79,5.14,24
131,1791779,2018-06-07,06:47,Wanning,CN,Asia,18.8,110.4,85.07,100,11.63,64
132,934322,2018-06-07,06:47,Mahebourg,MU,Africa,-20.41,57.7,82.4,65,14.99,40
133,352628,2018-06-07,06:47,Matay,EG,Africa,28.42,30.79,79.13,46,10.51,0
134,3985710,2018-06-07,06:47,Cabo San Lucas,MX,North America,22.89,-109.91,73.1,100,12.86,0
135,235130,2018-06-07,06:47,Apac,UG,Africa,1.98,32.53,66.17,100,9.4,92
136,2240449,2018-06-07,06:47,Luanda,AO,Africa,-8.83,13.24,72.29,76,8.39,0
137,186180,2018-06-07,06:47,Moyale,ET,Africa,3.52,39.05,65.0,100,5.48,100
138,1260296,2018-06-07,06:47,Parlakimidi,IN,Asia,18.77,84.08,94.97,62,5.26,0
139,2170581,2018-06-07,06:47,Coolum Beach,AU,Oceania,-26.53,153.09,64.46,100,9.4,92
140,1802276,2018-06-07,06:47,Longyan,CN,Asia,25.1,117.03,81.83,71,2.57,76
141,2610343,2018-06-07,06:47,Vestmanna,FO,Europe,62.16,-7.17,48.2,70,2.24,48
142,4664170,2018-06-07,06:47,Union City,US,North America,36.42,-89.06,67.64,94,2.91,1
143,3863379,2018-06-07,06:47,Mar del Plata,AR,South America,-46.43,-67.52,24.5,100,3.91,0
144,5848280,2018-06-07,06:47,Kapaa,US,North America,22.08,-159.32,75.2,78,16.11,20
145,3831208,2018-06-07,06:47,Qaanaaq,GL,North America,77.48,-69.36,22.25,89,6.82,0
146,3424607,2018-06-07,06:47,Tasiilaq,GL,North America,65.61,-37.64,42.8,87,16.11,92
147,2121025,2018-06-07,06:47,Srednekolymsk,RU,Europe,67.46,153.71,54.11,56,3.47,0
148,610612,2018-06-07,06:47,Aktau,KZ,Asia,43.65,51.16,78.8,50,11.18,0
149,3372707,2018-06-07,06:47,Ribeira Grande,PT,Europe,38.52,-28.7,59.0,72,6.93,20
150,2664339,2018-06-07,06:47,Vasterhaninge,SE,Europe,59.12,18.1,60.66,55,10.29,0
151,1141857,2018-06-07,06:47,Gardez,AF,Asia,33.6,69.22,82.19,16,4.14,0
152,3855065,2018-06-07,06:47,General Roca,AR,South America,-39.03,-67.58,30.2,92,2.24,0
153,3455020,2018-06-07,06:47,Parauna,BR,South America,-16.95,-50.45,61.4,86,2.91,0
154,1067565,2018-06-07,06:47,Beloha,MG,Africa,-25.17,45.06,65.0,93,17.0,92
155,1337610,2018-06-07,06:47,Thinadhoo,MV,Asia,0.53,72.93,82.46,100,8.39,44
156,2064735,2018-06-07,06:47,Nhulunbuy,AU,Oceania,-12.18,136.78,80.6,61,14.99,40
157,553725,2018-06-07,06:47,Kamenka,RU,Europe,53.19,44.05,52.76,74,7.61,0
158,57000,2018-06-07,06:47,Hobyo,SO,Africa,5.35,48.53,81.83,69,16.55,0
159,1280849,2018-06-07,06:47,Kashi,CN,Asia,39.45,75.98,78.8,26,6.71,8
160,187896,2018-06-07,06:47,Mandera,KE,Africa,3.94,41.87,82.01,60,14.76,88
161,127349,2018-06-07,06:47,Khorramabad,IR,Asia,33.48,48.35,82.4,34,4.7,0
162,5859699,2018-06-07,06:47,College,US,North America,64.86,-147.8,58.39,62,6.93,75
163,3572924,2018-06-07,06:47,Alice Town,BS,North America,25.72,-79.3,82.73,97,17.22,8
164,2208248,2018-06-07,06:47,Kaitangata,NZ,Oceania,-46.28,169.85,47.09,90,15.77,92
165,2146219,2018-06-07,06:47,Hervey Bay,AU,Oceania,-25.3,152.85,65.27,100,17.9,88
166,2514651,2018-06-07,06:47,Los Llanos de Aridane,ES,Europe,28.66,-17.92,68.0,68,8.05,40
167,3835994,2018-06-07,06:47,Santa Rosa,AR,South America,-36.62,-64.29,44.21,62,13.76,0
168,2122389,2018-06-07,06:47,Ossora,RU,Europe,59.24,163.07,40.61,95,3.91,20
169,238566,2018-06-07,06:47,Ippy,CF,Africa,6.26,21.2,79.22,82,4.03,0
170,3381303,2018-06-07,06:47,Kourou,GF,South America,5.16,-52.64,75.2,100,11.74,90
171,3838859,2018-06-07,06:47,Rio Gallegos,AR,South America,-51.62,-69.22,28.4,86,9.17,0
172,2729907,2018-06-07,06:47,Longyearbyen,SJ,Europe,78.22,15.64,39.2,64,10.29,40
173,2396853,2018-06-07,06:47,Omboue,GA,Africa,-1.57,9.26,77.51,99,8.28,8
174,3156980,2018-06-07,06:47,Floro,NO,Europe,61.6,5.03,56.57,62,4.7,0
175,2025241,2018-06-07,06:47,Churapcha,RU,Europe,62.0,132.43,68.33,42,7.61,0
176,6050066,2018-06-07,06:47,La Ronge,CA,North America,55.1,-105.3,44.6,87,1.45,5
177,1490256,2018-06-07,06:47,Talnakh,RU,Europe,69.49,88.39,43.31,74,17.78,0
178,1865309,2018-06-07,06:47,Katsuura,JP,Asia,33.93,134.5,77.0,69,6.93,75
179,5972291,2018-06-07,06:47,Havre-Saint-Pierre,CA,North America,50.23,-63.6,33.8,86,3.36,20
180,3893629,2018-06-07,06:47,Coquimbo,CL,South America,-29.95,-71.34,48.2,76,5.82,0
181,3416888,2018-06-07,06:47,Grindavik,IS,Europe,63.84,-22.43,45.55,100,5.82,90
182,2194098,2018-06-07,06:47,Ahipara,NZ,Oceania,-35.17,173.16,52.85,92,16.78,0
183,1738050,2018-06-07,06:47,Miri,MY,Asia,4.41,114.01,89.6,70,9.17,75
184,1337619,2018-06-07,06:47,Ugoofaaru,MV,Asia,5.67,73.0,81.56,100,17.0,92
185,2185329,2018-06-07,06:47,Waipawa,NZ,Oceania,-39.94,176.59,45.92,93,12.08,92
186,1608057,2018-06-07,06:47,Pak Chong,TH,Asia,14.71,101.42,86.15,73,11.97,80
187,1847947,2018-06-07,06:47,Shingu,JP,Asia,33.72,135.99,73.4,88,8.05,75
188,6170031,2018-06-07,06:47,Tuktoyaktuk,CA,North America,69.44,-133.03,32.0,92,10.29,44
189,603570,2018-06-07,06:47,Pitea,SE,Europe,65.32,21.48,41.0,86,8.05,90
190,866062,2018-06-07,06:47,Iskateley,RU,Europe,67.68,53.15,37.55,89,21.81,64
191,5745380,2018-06-07,06:47,Pendleton,US,North America,45.67,-118.79,63.09,40,4.7,75
192,2267254,2018-06-07,06:47,Lagoa,PT,Europe,37.14,-8.45,59.0,87,4.7,0
193,124665,2018-06-07,06:47,Mashhad,IR,Asia,36.3,59.61,91.4,27,6.93,0
194,5847411,2018-06-07,06:47,Kahului,US,North America,20.89,-156.47,71.38,83,9.17,40
195,1625929,2018-06-07,06:47,Sungaipenuh,ID,Asia,-2.08,101.38,73.82,93,1.9,36
196,6255012,2018-06-07,06:47,Flinders,AU,Oceania,-34.58,150.85,64.4,59,9.17,0
197,3190776,2018-06-07,06:47,Sjenica,RS,Europe,43.27,20.0,61.85,88,2.57,8
198,1525376,2018-06-07,06:47,Bestobe,KZ,Asia,52.5,73.1,80.93,51,10.29,36
199,2259655,2018-06-07,06:47,Impfondo,CG,Africa,1.64,18.07,72.92,94,2.68,64
200,100926,2018-06-07,06:47,Umm Lajj,SA,Asia,25.02,37.27,87.05,60,8.5,8
201,1630639,2018-06-07,06:47,Pringsewu,ID,Asia,-5.36,104.98,85.52,76,2.8,32
202,2794073,2018-06-07,06:47,Kortenaken,BE,Europe,50.91,5.06,66.94,88,8.05,75
203,3576812,2018-06-07,06:47,Castries,LC,North America,14.0,-61.01,80.6,83,19.46,20
204,6355222,2018-06-07,06:47,Yulara,AU,Oceania,-25.24,130.99,78.8,10,10.29,36
205,1244926,2018-06-07,06:47,Hambantota,LK,Asia,6.12,81.12,80.39,100,19.35,88
206,3118304,2018-06-07,06:47,Llanes,ES,Europe,43.42,-4.75,51.77,97,1.9,76
207,5955902,2018-06-07,06:47,Fort Nelson,CA,North America,58.81,-122.69,51.8,76,11.41,75
208,2447513,2018-06-07,06:47,Arlit,NE,Africa,18.74,7.39,84.53,40,3.69,32
209,1510377,2018-06-07,06:47,Belyy Yar,RU,Europe,53.6,91.39,75.2,50,11.18,0
210,1651531,2018-06-07,06:47,Ambon,ID,Asia,-3.7,128.18,82.82,91,9.95,32
211,1793700,2018-06-07,06:47,Taicheng,CN,Asia,22.25,112.8,77.78,100,9.4,92
212,2155542,2018-06-07,06:47,Nerang,AU,Oceania,-27.99,153.34,68.0,56,14.99,40
213,3883457,2018-06-07,06:47,Lebu,CL,South America,-37.62,-73.65,49.88,100,12.41,0
214,3868707,2018-06-07,06:47,Valdivia,CL,South America,-39.81,-73.25,33.8,100,3.13,90
215,3563317,2018-06-07,06:47,Corralillo,CU,North America,22.98,-80.59,71.39,100,2.91,0
216,2125906,2018-06-07,06:47,Dukat,RU,Europe,62.55,155.55,52.94,26,5.93,88
217,2524881,2018-06-07,06:47,Crotone,IT,Europe,39.09,17.12,78.8,50,4.7,0
218,2109701,2018-06-07,06:47,Auki,SB,Oceania,-8.77,160.7,80.84,100,1.79,80
219,1733023,2018-06-07,06:47,Kuala Lipis,MY,Asia,4.19,102.05,87.95,89,4.14,0
220,1487332,2018-06-07,06:47,Verkhnyaya Inta,RU,Europe,65.99,60.32,46.37,64,7.61,0
221,1504380,2018-06-07,06:47,Kargat,RU,Europe,55.19,80.28,82.91,47,4.59,0
222,3860443,2018-06-07,06:47,Comodoro Rivadavia,AR,South America,-45.87,-67.48,39.2,60,4.7,0
223,3531368,2018-06-07,06:47,Celestun,MX,North America,20.87,-90.4,81.47,100,13.76,12
224,1562414,2018-06-07,06:47,Vung Tau,VN,Asia,10.35,107.08,93.2,63,13.87,40
225,3402648,2018-06-07,06:47,Carutapera,BR,South America,-1.2,-46.02,79.85,86,7.94,80
226,1636308,2018-06-07,06:47,Manokwari,ID,Asia,-0.87,134.08,82.19,100,10.74,92
227,3870243,2018-06-07,06:47,Taltal,CL,South America,-25.41,-70.49,43.4,91,1.9,0
228,2022572,2018-06-07,06:47,Khatanga,RU,Europe,71.98,102.47,62.57,63,17.67,0
229,2319668,2018-06-07,06:47,Uromi,NG,Africa,6.71,6.33,75.89,96,5.7,88
230,3385899,2018-06-07,06:47,Tutoia,BR,South America,-2.76,-42.27,77.69,88,8.39,0
231,2618795,2018-06-07,06:47,Klaksvik,FO,Europe,62.23,-6.59,48.2,70,2.24,76
232,4034551,2018-06-07,06:47,Faanui,PF,Oceania,-16.48,-151.75,81.56,100,13.76,92
233,4017764,2018-06-07,06:47,Anahuac,MX,North America,26.44,-109.02,79.85,81,5.37,0
234,3133053,2018-06-07,06:47,Vagamo,NO,Europe,61.88,9.1,48.08,60,2.35,0
235,286245,2018-06-07,06:47,Sur,OM,Asia,22.57,59.53,91.19,79,6.15,0
236,1852357,2018-06-07,06:47,Shimoda,JP,Asia,34.7,138.93,75.2,78,3.36,75
237,3385670,2018-06-07,06:47,Urucara,BR,South America,-2.54,-57.76,72.83,99,1.68,20
238,2178753,2018-06-07,06:47,Kirakira,SB,Oceania,-10.46,161.92,83.45,100,6.82,56
239,3374083,2018-06-07,06:47,Bathsheba,BB,North America,13.22,-59.52,78.8,83,19.46,40
240,3354071,2018-06-07,06:47,Oranjemund,NA,Africa,-28.55,16.43,60.05,93,6.93,0
241,623760,2018-06-07,06:47,Pastavy,BY,Europe,55.11,26.84,53.57,79,7.38,12
242,2449893,2018-06-07,06:47,Tessalit,ML,Africa,20.2,1.01,79.76,22,7.27,0
243,1501377,2018-06-07,06:47,Kungurtug,RU,Europe,50.6,97.53,63.2,40,4.36,8
244,2071860,2018-06-07,06:47,Esperance,AU,Oceania,-33.86,121.89,62.66,51,10.07,12
245,2160517,2018-06-07,06:47,Launceston,AU,Oceania,-41.43,147.14,57.2,71,16.11,75
246,5380437,2018-06-07,06:47,Pacific Grove,US,North America,36.62,-121.92,54.97,87,8.05,20
247,3418910,2018-06-07,06:47,Upernavik,GL,North America,72.79,-56.15,36.83,76,12.19,88
248,3361934,2018-06-07,06:47,Saldanha,ZA,Africa,-33.01,17.94,52.49,89,7.49,20
249,6096551,2018-06-07,06:47,Pangnirtung,CA,North America,66.15,-65.72,27.56,97,5.14,92
250,161312,2018-06-07,06:47,Babati,TZ,Africa,-4.21,35.75,61.76,87,6.49,92
251,5851349,2018-06-07,06:47,Nanakuli,US,North America,21.39,-158.15,73.92,94,4.7,90
252,2019884,2018-06-07,06:47,Mogzon,RU,Europe,51.74,111.97,66.08,69,6.6,12
253,1795632,2018-06-07,06:47,Shenjiamen,CN,Asia,29.96,122.3,73.19,94,7.49,36
254,2092164,2018-06-07,06:47,Lorengau,PG,Oceania,-2.02,147.27,83.18,100,7.27,32
255,1490796,2018-06-07,06:47,Strezhevoy,RU,Europe,60.73,77.6,87.8,23,13.42,0
256,2513222,2018-06-07,06:47,Nijar,ES,Europe,36.97,-2.21,62.6,82,3.36,0
257,285663,2018-06-07,06:47,Bayan,KW,Asia,29.3,48.05,104.0,15,21.92,5
258,2119283,2018-06-07,06:47,Zyryanka,RU,Europe,65.73,150.89,59.51,41,2.68,0
259,1633419,2018-06-07,06:47,Padang,ID,Asia,-0.92,100.36,82.91,100,5.14,24
260,1489853,2018-06-07,06:47,Tazovskiy,RU,Europe,67.47,78.7,40.79,90,3.02,20
261,1337612,2018-06-07,06:47,Dhidhdhoo,MV,Asia,6.88,73.1,82.73,100,19.8,92
262,3372760,2018-06-07,06:47,Praia da Vitoria,PT,Europe,38.73,-27.07,62.6,72,13.87,75
263,2208091,2018-06-07,06:47,Waitara,NZ,Oceania,-39.0,174.24,53.48,99,18.23,8
264,110690,2018-06-07,06:47,Abha,SA,Asia,18.22,42.5,80.6,42,12.75,20
265,1526041,2018-06-07,06:47,Atasu,KZ,Asia,48.68,71.64,84.89,31,12.64,36
266,2013279,2018-06-07,06:47,Vostok,RU,Europe,46.45,135.83,57.71,100,2.8,92
267,4031742,2018-06-07,06:47,Egvekinot,RU,Europe,66.32,-179.17,37.64,92,2.68,64
268,6111862,2018-06-07,06:47,Port Hardy,CA,North America,50.7,-127.42,53.6,71,5.82,90
269,5949493,2018-06-07,06:47,Espanola,CA,North America,46.27,-81.77,51.95,67,4.14,88
270,1528998,2018-06-07,06:47,Yumen,CN,Asia,40.29,97.04,72.65,21,18.79,76
271,3514179,2018-06-07,06:47,Tuxtla,MX,North America,20.0,-97.65,58.88,98,0.67,44
272,2512186,2018-06-07,06:47,Puerto del Rosario,ES,Europe,28.5,-13.86,66.2,82,13.87,75
273,2019488,2018-06-07,06:47,Namtsy,RU,Europe,62.72,129.66,67.79,46,7.38,36
274,1788852,2018-06-07,06:47,Xining,CN,Asia,36.62,101.77,51.41,65,5.03,92
275,4267710,2018-06-07,06:47,Sitka,US,North America,37.17,-99.65,80.48,55,15.55,8
276,934649,2018-06-07,06:47,Cap Malheureux,MU,Africa,-19.98,57.61,82.4,65,14.99,40
277,2074865,2018-06-07,06:47,Carnarvon,AU,Oceania,-24.87,113.63,68.78,100,8.95,88
278,2014078,2018-06-07,06:47,Urusha,RU,Europe,54.05,122.9,74.09,53,4.03,24
279,1033356,2018-06-07,06:47,Nampula,MZ,Africa,-15.12,39.26,64.91,76,8.61,0
280,1049861,2018-06-07,06:47,Chibuto,MZ,Africa,-24.69,33.53,64.82,91,7.38,88
281,3382160,2018-06-07,06:47,Cayenne,GF,South America,4.94,-52.33,75.2,100,8.95,90
282,5438542,2018-06-07,06:47,Sheridan,US,North America,39.65,-105.03,66.0,49,12.75,1
283,3374210,2018-06-07,06:47,Sao Filipe,CV,Africa,14.9,-24.5,72.02,100,12.75,32
284,2156034,2018-06-07,06:47,Muswellbrook,AU,Oceania,-32.27,150.89,60.68,78,5.14,32
285,2269594,2018-06-07,06:47,Cascais,PT,Europe,38.7,-9.42,60.19,82,8.05,75
286,2136825,2018-06-07,06:47,Isangel,VU,Oceania,-19.55,169.27,71.12,100,26.51,100
287,4171522,2018-06-07,06:47,Saint Pete Beach,US,North America,27.73,-82.74,74.19,83,6.38,90
288,1278969,2018-06-07,06:47,Along,IN,Asia,28.17,94.8,78.05,72,1.9,64
289,3573840,2018-06-07,06:47,Rio Claro,TT,North America,10.31,-61.18,77.0,88,3.36,20
290,1797929,2018-06-07,06:47,Qingdao,CN,Asia,36.09,120.35,86.0,51,8.95,0
291,6089245,2018-06-07,06:47,Norman Wells,CA,North America,65.28,-126.83,55.4,47,3.36,40
292,4036284,2018-06-07,06:47,Alofi,NU,Oceania,-19.06,-169.92,75.2,88,3.36,92
293,5977783,2018-06-07,06:47,Houston,CA,North America,54.4,-126.65,48.2,81,4.7,90
294,226823,2018-06-07,06:47,Pallisa,UG,Africa,1.17,33.71,68.24,100,5.93,48
295,3404558,2018-06-07,06:47,Cabedelo,BR,South America,-6.97,-34.84,75.2,94,5.82,75
296,5924500,2018-06-07,06:47,Coaticook,CA,North America,45.13,-71.8,45.16,100,2.57,75
297,1905806,2018-06-07,06:47,Tangzhai,CN,Asia,26.73,109.0,84.17,55,7.94,8
298,3622716,2018-06-07,06:47,Nicoya,CR,North America,10.15,-85.45,77.0,83,4.7,0
299,2090021,2018-06-07,06:47,Namatanai,PG,Oceania,-3.66,152.44,83.45,100,5.7,24
300,986717,2018-06-07,06:48,Kruisfontein,ZA,Africa,-34.0,24.73,69.23,58,14.43,20
301,1861280,2018-06-07,06:48,Itoman,JP,Asia,26.12,127.67,87.76,66,8.05,75
302,3674735,2018-06-07,06:48,Miraflores,CO,South America,5.2,-73.14,52.49,99,1.57,88
303,5017822,2018-06-07,06:48,Bemidji,US,North America,47.48,-94.89,49.64,87,2.8,1
304,1052373,2018-06-07,06:48,Beira,MZ,Africa,-19.84,34.84,62.6,88,10.29,20
305,3872594,2018-06-07,06:48,Salamanca,CL,South America,-31.78,-70.97,30.71,59,1.57,12
306,1242110,2018-06-07,06:48,Kalmunai,LK,Asia,7.42,81.82,87.59,73,11.97,76
307,2121385,2018-06-07,06:48,Severo-Kurilsk,RU,Europe,50.68,156.12,38.18,99,12.75,92
308,1516048,2018-06-07,06:48,Hovd,MN,Asia,48.01,91.64,72.38,37,3.36,24
309,1804430,2018-06-07,06:48,Lanzhou,CN,Asia,36.06,103.82,62.6,58,8.95,40
310,777682,2018-06-07,06:48,Skjervoy,NO,Europe,70.03,20.97,37.4,93,9.17,75
311,1626443,2018-06-07,06:48,Subang,ID,Asia,-7.13,108.54,91.28,40,2.68,0
312,2361477,2018-06-07,06:48,Dedougou,BF,Africa,12.47,-3.47,77.15,85,8.95,32
313,4033557,2018-06-07,06:48,Tautira,PF,Oceania,-17.73,-149.15,77.0,83,3.36,40
314,2155562,2018-06-07,06:48,Nelson Bay,AU,Oceania,-32.72,152.14,66.2,59,6.93,75
315,1261823,2018-06-07,06:48,Narayanpet,IN,Asia,16.73,77.5,77.51,97,12.86,44
316,3347719,2018-06-07,06:48,Luena,AO,Africa,-11.78,19.91,52.31,60,7.61,0
317,5554428,2018-06-07,06:48,Ketchikan,US,North America,55.34,-131.65,48.2,81,11.41,75
318,5742974,2018-06-07,06:48,North Bend,US,North America,43.41,-124.22,55.4,87,3.36,90
319,3942259,2018-06-07,06:48,Coracora,PE,South America,-15.02,-73.78,31.43,85,2.24,0
320,241131,2018-06-07,06:48,Victoria,SC,Africa,-4.62,55.45,84.2,74,11.41,40
321,2188874,2018-06-07,06:48,Russell,NZ,Oceania,-35.26,174.12,49.07,67,14.09,0
322,1641899,2018-06-07,06:48,Labuhan,ID,Asia,-2.54,115.51,84.53,78,2.8,44
323,3601496,2018-06-07,06:48,Santa Rosa de Aguan,HN,North America,15.95,-85.71,82.82,98,20.69,92
324,4033543,2018-06-07,06:48,Teahupoo,PF,Oceania,-17.83,-149.27,77.0,83,3.36,40
325,3979216,2018-06-07,06:48,Camalu,MX,North America,30.85,-116.07,52.76,95,5.59,20
326,2128975,2018-06-07,06:48,Nemuro,JP,Asia,43.32,145.57,78.8,54,9.17,75
327,5690366,2018-06-07,06:48,Mandan,US,North America,46.83,-100.89,59.99,62,6.93,75
328,486186,2018-06-07,06:48,Suoyarvi,RU,Europe,62.08,32.35,47.27,51,6.26,56
329,1726449,2018-06-07,06:48,Basco,PH,Asia,20.45,121.97,87.41,94,12.75,68
330,476062,2018-06-07,06:48,Velikiy Ustyug,RU,Europe,60.76,46.3,47.45,66,6.6,24
331,4286717,2018-06-07,06:48,Campbellsville,US,North America,37.34,-85.34,59.38,77,2.68,1
332,2282006,2018-06-07,06:48,San-Pedro,CI,Africa,4.75,-6.64,74.81,100,6.93,92
333,3393115,2018-06-07,06:48,Paracuru,BR,South America,-3.41,-39.03,78.8,94,6.93,75
334,3448455,2018-06-07,06:48,Sao Miguel do Araguaia,BR,South America,-13.28,-50.16,69.23,91,2.35,0
335,779683,2018-06-07,06:48,Hammerfest,NO,Europe,70.66,23.68,36.63,93,8.05,75
336,3448903,2018-06-07,06:48,Sao Joao da Barra,BR,South America,-21.64,-41.05,73.73,100,10.96,24
337,3652758,2018-06-07,06:48,Puerto Baquerizo Moreno,EC,South America,-0.9,-89.6,73.46,97,12.64,92
338,1082243,2018-06-07,06:48,Ambilobe,MG,Africa,-13.19,49.05,79.85,61,4.36,0
339,461442,2018-06-07,06:48,Ape,LV,Europe,57.54,26.69,51.59,71,7.05,0
340,53654,2018-06-07,06:48,Mogadishu,SO,Africa,2.04,45.34,82.4,78,16.11,75
341,2983990,2018-06-07,06:48,Rennes,FR,Europe,48.11,-1.68,57.99,100,2.24,90
342,5354943,2018-06-07,06:48,Half Moon Bay,US,North America,37.46,-122.43,56.68,71,16.11,20
343,2427336,2018-06-07,06:48,Moussoro,TD,Africa,13.64,16.49,80.57,53,1.79,0
344,292672,2018-06-07,06:48,Sharjah,AE,Asia,25.36,55.39,104.32,24,12.75,20
345,1524325,2018-06-07,06:48,Ekibastuz,KZ,Asia,51.72,75.32,82.1,35,10.07,92
346,2023469,2018-06-07,06:48,Markova,RU,Europe,52.21,104.21,75.2,38,8.95,0
347,505269,2018-06-07,06:48,Primorsk,RU,Europe,60.37,28.62,52.31,55,6.71,32
348,3866163,2018-06-07,06:48,Alta Gracia,AR,South America,-31.66,-64.43,39.2,80,9.17,0
349,3459352,2018-06-07,06:48,Ladario,BR,South America,-19.0,-57.6,57.53,100,3.36,36
350,705544,2018-06-07,06:48,Kobelyaky,UA,Europe,49.15,34.2,60.5,79,4.59,8
351,2542997,2018-06-07,06:48,Marrakesh,MA,Africa,31.63,-7.99,62.6,67,2.24,0
352,4015683,2018-06-07,06:48,Nicolas Bravo,MX,North America,24.39,-104.74,70.76,29,5.37,92
353,3470341,2018-06-07,06:48,Bastos,BR,South America,-21.92,-50.73,63.02,90,2.91,80
354,3933104,2018-06-07,06:48,Pangoa,PE,South America,-12.12,-73.0,61.76,99,1.68,36
355,2264923,2018-06-07,06:48,Peniche,PT,Europe,39.36,-9.38,59.54,82,8.05,75
356,2640194,2018-06-07,06:48,Plymouth,GB,Europe,50.37,-4.14,59.0,82,5.82,0
357,2448085,2018-06-07,06:48,Agadez,NE,Africa,16.97,7.99,87.8,43,6.93,0
358,3137469,2018-06-07,06:48,Sorland,NO,Europe,67.67,12.69,42.8,70,16.11,40
359,2637659,2018-06-07,06:48,Sleaford,GB,Europe,53.0,-0.41,51.6,100,4.7,75
360,2521804,2018-06-07,06:48,Altea,ES,Europe,38.6,-0.05,64.4,68,3.36,0
361,6067747,2018-06-07,06:48,Matagami,CA,North America,49.76,-77.63,50.0,93,4.7,90
362,1079048,2018-06-07,06:48,Ambovombe,MG,Africa,-25.18,46.09,70.94,79,17.56,0
363,1262062,2018-06-07,06:48,Naliya,IN,Asia,23.26,68.83,94.88,54,18.9,0
364,2630299,2018-06-07,06:48,Hofn,IS,Europe,64.25,-15.21,48.08,95,3.69,8
365,1850144,2018-06-07,06:48,Nishihara,JP,Asia,35.74,139.53,80.58,48,11.41,20
366,3924872,2018-06-07,06:48,Presidente Medici,BR,South America,-11.18,-61.9,64.37,94,2.68,0
367,1806408,2018-06-07,06:48,Yangjiang,CN,Asia,21.85,111.96,79.58,100,12.64,80
368,970341,2018-06-07,06:48,Nkowakowa,ZA,Africa,-23.89,30.29,39.44,79,2.24,0
369,196742,2018-06-07,06:48,Homa Bay,KE,Africa,-0.53,34.45,64.46,100,2.57,92
370,1633070,2018-06-07,06:48,Palembang,ID,Asia,-2.99,104.76,94.97,57,4.36,36
371,516716,2018-06-07,06:48,Nurlat,RU,Europe,54.43,50.8,57.71,61,9.4,44
372,1273874,2018-06-07,06:48,Kochi,IN,Asia,9.96,76.25,82.4,88,1.12,75
373,2176639,2018-06-07,06:48,Batemans Bay,AU,Oceania,-35.71,150.18,60.23,84,7.49,20
374,3451474,2018-06-07,06:48,Riachao do Jacuipe,BR,South America,-11.81,-39.39,60.5,95,2.46,0
375,921028,2018-06-07,06:48,Chadiza,ZM,Africa,-14.06,32.43,53.39,68,9.4,0
376,2083537,2018-06-07,06:48,Wewak,PG,Oceania,-3.55,143.63,82.28,84,2.91,56
377,3985168,2018-06-07,06:48,San Patricio,MX,North America,19.22,-104.7,74.45,100,2.46,76
378,3936456,2018-06-07,06:48,Lima,PE,South America,-12.06,-77.04,51.59,77,2.24,0
379,712967,2018-06-07,06:48,Bakhmach,UA,Europe,51.18,32.81,59.33,64,4.36,0
380,2181625,2018-06-07,06:48,Te Anau,NZ,Oceania,-45.41,167.72,36.92,96,2.13,68
381,3577430,2018-06-07,06:48,Road Town,VG,North America,18.42,-64.62,80.6,78,5.82,1
382,6180550,2018-06-07,06:48,Whitehorse,CA,North America,60.72,-135.06,53.6,46,13.87,75
383,4004293,2018-06-07,06:48,Ixtapa,MX,North America,20.71,-105.21,77.0,100,4.7,90
384,104515,2018-06-07,06:48,Mecca,SA,Asia,21.43,39.83,95.0,30,4.7,0
385,2303611,2018-06-07,06:48,Axim,GH,Africa,4.87,-2.24,80.3,100,9.62,92
386,2629833,2018-06-07,06:48,Husavik,IS,Europe,66.04,-17.34,44.6,100,8.05,90
387,551638,2018-06-07,06:48,Kayasula,RU,Europe,44.33,45.0,71.48,74,8.39,64
388,2122493,2018-06-07,06:48,Omsukchan,RU,Europe,62.53,155.8,52.76,31,5.14,80
389,1645528,2018-06-07,06:48,Denpasar,ID,Asia,-8.65,115.22,85.25,65,1.68,48
390,1623502,2018-06-07,06:48,Sabang,ID,Asia,1.17,120.82,84.35,100,3.13,0
391,5942913,2018-06-07,06:48,Dryden,CA,North America,49.79,-92.84,51.23,87,2.24,12
392,3846864,2018-06-07,06:48,Lincoln,AR,South America,-34.87,-61.53,43.13,83,13.76,8
393,128008,2018-06-07,06:48,Khalkhal,IR,Asia,37.62,48.53,76.25,30,2.24,0
394,1586443,2018-06-07,06:48,Ca Mau,VN,Asia,9.18,105.15,90.11,74,12.75,48
395,1814934,2018-06-07,06:48,Jiangkou,CN,Asia,30.7,117.56,79.7,83,3.71,88
396,3713959,2018-06-07,06:48,Bocas del Toro,PA,North America,9.33,-82.25,82.28,100,8.28,80
397,567047,2018-06-07,06:48,Darovskoy,RU,Europe,58.77,47.96,50.06,74,7.38,12
398,358172,2018-06-07,06:48,Dekernes,EG,Africa,31.09,31.59,79.85,76,6.93,0
399,1795855,2018-06-07,06:48,Shaoxing,CN,Asia,30.0,120.58,86.0,62,8.95,40
400,4034188,2018-06-07,06:48,Moerai,PF,Oceania,-22.43,-151.33,78.41,98,2.91,44
401,2026160,2018-06-07,06:48,Borogontsy,RU,Europe,62.67,131.17,71.48,38,7.61,0
402,2538474,2018-06-07,06:48,Rabat,MA,Africa,34.02,-6.83,57.2,93,2.24,40
403,2522890,2018-06-07,06:48,Tortoli,IT,Europe,39.93,9.66,68.0,77,5.82,75
404,1737486,2018-06-07,06:48,Bintulu,MY,Asia,3.17,113.03,93.2,67,9.17,75
405,2156643,2018-06-07,06:48,Mount Gambier,AU,Oceania,-37.83,140.78,60.05,47,13.65,64
406,2510573,2018-06-07,06:48,Teguise,ES,Europe,29.06,-13.56,66.2,82,5.82,75
407,1801200,2018-06-07,06:48,Haimen,CN,Asia,31.87,121.18,84.44,55,9.17,0
408,2082539,2018-06-07,06:48,Merauke,ID,Asia,-8.49,140.4,85.25,68,13.2,64
409,2122293,2018-06-07,06:48,Ozernovskiy,RU,Europe,51.5,156.52,39.35,98,11.52,92
410,5919850,2018-06-07,06:48,Chapais,CA,North America,49.78,-74.86,48.2,93,3.36,90
411,3530839,2018-06-07,06:48,China,MX,North America,25.71,-99.24,81.74,68,15.88,0
412,3192404,2018-06-07,06:48,Prijepolje,RS,Europe,43.39,19.65,66.2,88,3.36,0
413,3423146,2018-06-07,06:48,Ilulissat,GL,North America,69.22,-51.1,42.8,70,14.99,36
414,3617069,2018-06-07,06:48,Rio Blanco,NI,North America,12.93,-85.22,71.75,97,2.46,88
415,3372472,2018-06-07,06:48,Vila Franca do Campo,PT,Europe,37.72,-25.43,60.8,77,5.82,20
416,2033413,2018-06-07,06:48,Cuiluan,CN,Asia,47.72,128.65,64.1,88,2.68,64
417,6690296,2018-06-07,06:48,Saint-Joseph,RE,Africa,-21.37,55.62,82.4,58,5.82,0
418,1507116,2018-06-07,06:48,Dudinka,RU,Europe,69.41,86.18,42.05,81,22.82,32
419,3471451,2018-06-07,06:48,Arraial do Cabo,BR,South America,-22.97,-42.02,68.69,100,5.59,80
420,1252783,2018-06-07,06:48,Yarada,IN,Asia,17.65,83.27,84.71,100,20.69,8
421,2136697,2018-06-07,06:48,Lakatoro,VU,Oceania,-16.11,167.42,72.2,100,5.03,92
422,3592086,2018-06-07,06:48,Ocos,GT,North America,14.51,-92.19,79.85,100,7.38,36
423,1849876,2018-06-07,06:48,Yamada,JP,Asia,36.58,137.08,76.15,48,9.17,20
424,1157662,2018-06-07,06:48,Bang Saphan,TH,Asia,11.21,99.51,77.0,94,5.82,75
425,2035836,2018-06-07,06:48,Manzhouli,CN,Asia,49.6,117.43,74.18,61,7.05,0
426,3869716,2018-06-07,06:48,Tocopilla,CL,South America,-22.09,-70.2,55.01,100,3.58,32
427,507643,2018-06-07,06:48,Poim,RU,Europe,53.03,43.19,53.84,77,7.49,0
428,2260401,2018-06-07,06:48,Djambala,CG,Africa,-2.55,14.76,66.89,81,3.58,0
429,1214488,2018-06-07,06:48,Meulaboh,ID,Asia,4.14,96.13,85.79,98,4.03,0
430,3443061,2018-06-07,06:48,Chuy,UY,South America,-33.69,-53.46,48.26,99,14.76,32
431,2021017,2018-06-07,06:48,Kysyl-Syr,RU,Europe,63.9,122.77,75.53,26,7.05,0
432,3421719,2018-06-07,06:48,Narsaq,GL,North America,60.91,-46.05,37.4,86,3.36,75
433,3687975,2018-06-07,06:48,Calamar,CO,South America,1.96,-72.65,68.96,99,2.35,76
434,3982846,2018-06-07,06:48,San Jeronimo,MX,North America,29.37,-110.79,86.0,37,3.36,5
435,1337605,2018-06-07,06:48,Mahibadhoo,MV,Asia,3.78,72.97,83.27,100,13.65,56
436,2400547,2018-06-07,06:48,Gamba,GA,Africa,-2.72,10.02,75.8,99,5.7,92
437,496285,2018-06-07,06:48,Severodvinsk,RU,Europe,64.56,39.82,46.4,61,11.18,40
438,3517970,2018-06-07,06:48,Pochutla,MX,North America,15.74,-96.47,82.55,100,8.16,8
439,2100633,2018-06-07,06:48,Arawa,PG,Oceania,-6.23,155.57,80.93,96,4.25,64
440,5321473,2018-06-07,06:48,Winslow,US,North America,35.02,-110.7,71.6,9,11.41,1
441,2264557,2018-06-07,06:48,Ponta do Sol,PT,Europe,32.67,-17.1,64.4,82,3.36,20
442,3456820,2018-06-07,06:48,Monte Santo,BR,South America,-10.44,-39.33,64.37,93,5.82,0
443,2122605,2018-06-07,06:48,Okhotsk,RU,Europe,59.36,143.24,51.68,68,4.14,44
444,1267390,2018-06-07,06:48,Kavaratti,IN,Asia,10.57,72.64,77.96,100,18.57,92
445,2377457,2018-06-07,06:48,Nouadhibou,MR,Africa,20.93,-17.03,71.6,64,17.22,8
446,3421765,2018-06-07,06:48,Nanortalik,GL,North America,60.14,-45.24,35.93,95,15.88,92
447,6071618,2018-06-07,06:48,Medicine Hat,CA,North America,50.04,-110.68,59.0,51,4.7,1
448,1853514,2018-06-07,06:48,Owase,JP,Asia,34.07,136.2,70.94,89,3.69,88
449,3939168,2018-06-07,06:48,Huarmey,PE,South America,-10.07,-78.15,51.95,93,2.13,0
450,6620339,2018-06-07,06:48,Karratha,AU,Oceania,-20.74,116.85,74.36,100,4.14,92
451,2093685,2018-06-07,06:48,Kokopo,PG,Oceania,-4.34,152.27,80.93,100,4.59,24
452,3146487,2018-06-07,06:48,Maloy,NO,Europe,61.94,5.11,55.31,62,4.7,0
453,6138501,2018-06-07,06:48,Saint-Augustin,CA,North America,45.63,-73.98,54.86,100,2.24,90
454,1799462,2018-06-07,06:48,Shaoyang,CN,Asia,27.23,111.45,75.62,99,4.14,92
455,1275609,2018-06-07,06:48,Bilkha,IN,Asia,21.43,70.6,93.53,60,13.09,20
456,2179103,2018-06-07,06:48,Whitianga,NZ,Oceania,-36.83,175.7,53.21,100,21.25,0
457,535839,2018-06-07,06:48,Leshukonskoye,RU,Europe,64.9,45.76,44.57,61,6.71,56
458,98182,2018-06-07,06:48,Baghdad,IQ,Asia,33.3,44.38,96.8,20,9.17,0
459,1497951,2018-06-07,06:48,Nazarovo,RU,Europe,56.01,90.42,68.87,73,4.59,36
460,3832899,2018-06-07,06:48,Viedma,AR,South America,-40.81,-62.99,47.18,65,18.12,44
461,5495360,2018-06-07,06:48,Tucumcari,US,North America,35.17,-103.73,75.2,29,4.7,1
462,3454005,2018-06-07,06:48,Piacabucu,BR,South America,-10.41,-36.43,73.73,98,3.58,8
463,3353715,2018-06-07,06:48,Outjo,NA,Africa,-20.11,16.16,44.6,56,3.36,0
464,6100799,2018-06-07,06:48,Pemberton,CA,North America,50.32,-122.8,46.46,64,1.45,80
465,3934055,2018-06-07,06:48,Chilca,PE,South America,-13.22,-72.34,41.0,75,1.12,20
466,1855540,2018-06-07,06:48,Naze,JP,Asia,28.37,129.48,78.8,88,5.82,75
467,782535,2018-06-07,06:48,Leskovik,AL,Europe,40.15,20.6,69.8,77,1.9,20
468,3708892,2018-06-07,06:48,Guarumal,PA,North America,8.36,-82.54,74.09,100,2.35,88
469,1629965,2018-06-07,06:48,Tanete,ID,Asia,-3.94,119.78,85.88,69,11.41,64
470,4328010,2018-06-07,06:48,Houma,US,North America,29.6,-90.72,73.09,100,5.93,1
471,584471,2018-06-07,06:48,Abdulino,RU,Europe,53.68,53.66,56.18,74,11.18,0
472,1488708,2018-06-07,06:48,Ubinskoye,RU,Europe,55.31,79.68,83.45,51,4.59,0
473,1485664,2018-06-07,06:48,Yushala,RU,Europe,57.08,64.26,73.4,40,4.47,0
474,4011743,2018-06-07,06:48,Constitucion,MX,North America,23.99,-104.67,75.35,20,10.4,88
475,2028462,2018-06-07,06:48,Ulaanbaatar,MN,Asia,47.92,106.92,69.8,52,15.66,40
476,2014833,2018-06-07,06:48,Tura,RU,Europe,64.27,100.22,67.16,42,4.59,0
477,2137773,2018-06-07,06:48,Vao,NC,Oceania,-22.67,167.48,72.02,100,23.15,76
478,286621,2018-06-07,06:48,Salalah,OM,Asia,17.01,54.1,86.0,70,9.17,75
479,729909,2018-06-07,06:48,Krivodol,BG,Europe,43.37,23.48,65.09,88,2.8,56
480,2190299,2018-06-07,06:48,Hanmer Springs,NZ,Oceania,-42.52,172.83,42.05,100,6.93,76
481,3441292,2018-06-07,06:48,Paso de Carrasco,UY,South America,-34.86,-56.05,44.6,93,5.82,0
482,2409215,2018-06-07,06:48,Mattru,SL,Africa,7.62,-11.83,74.63,99,2.8,68
483,2219235,2018-06-07,06:48,Awbari,LY,Africa,26.59,12.77,86.15,17,4.92,0
484,2063042,2018-06-07,06:48,Port Hedland,AU,Oceania,-20.31,118.58,73.4,94,10.29,90
485,556268,2018-06-07,06:48,Ostrovnoy,RU,Europe,68.05,39.51,38.54,86,16.11,88
486,503581,2018-06-07,06:48,Pyaozerskiy,RU,Europe,65.83,31.17,44.12,65,6.26,68
487,4021858,2018-06-07,06:48,Guerrero Negro,MX,North America,27.97,-114.04,60.05,100,8.61,76
488,3675443,2018-06-07,06:48,Cartagena,CO,South America,5.03,-75.64,66.2,93,5.82,20
489,2168943,2018-06-07,06:49,Devonport,AU,Oceania,-41.18,146.36,53.03,89,16.22,88
490,3128382,2018-06-07,06:49,Bejar,ES,Europe,40.39,-5.76,53.6,93,4.7,90
491,2022083,2018-06-07,06:49,Alekseyevsk,RU,Europe,57.84,108.35,68.87,58,2.91,12
492,4884453,2018-06-07,06:49,Belvidere,US,North America,42.26,-88.84,66.97,88,2.13,1
493,380348,2018-06-07,06:49,Abu Zabad,SD,Africa,12.35,29.25,83.45,49,4.36,0
494,2028164,2018-06-07,06:49,Deputatskiy,RU,Europe,69.3,139.9,70.76,23,4.14,0
495,2396518,2018-06-07,06:49,Port-Gentil,GA,Africa,-0.72,8.78,78.8,88,8.05,40
496,472878,2018-06-07,06:49,Vokhtoga,RU,Europe,58.81,41.03,47.09,86,7.38,64
497,539689,2018-06-07,06:49,Kukmor,RU,Europe,56.19,50.9,51.68,62,12.53,36
498,1642911,2018-06-07,06:49,Makasar,ID,Asia,-6.28,106.88,89.6,62,8.05,40
499,1152222,2018-06-07,06:49,Mae Hong Son,TH,Asia,19.3,97.97,91.4,49,3.36,75
500,2098869,2018-06-07,06:49,Bulolo,PG,Oceania,-7.2,146.64,68.78,88,2.13,80
501,902620,2018-06-07,06:49,Mwinilunga,ZM,Africa,-11.73,24.43,51.23,64,5.93,0
502,512255,2018-06-07,06:49,Shirokiy,RU,Europe,53.87,39.17,53.93,77,7.83,44
503,1263532,2018-06-07,06:49,Margherita,IN,Asia,27.29,95.67,87.8,70,3.36,75
504,3493032,2018-06-07,06:49,San Pedro de Macoris,DO,North America,18.46,-69.3,77.0,88,4.7,20
505,511359,2018-06-07,06:49,Pereslavl-Zalesskiy,RU,Europe,56.74,38.86,51.05,76,10.63,0
506,5788822,2018-06-07,06:49,Camas,US,North America,45.59,-122.41,59.22,67,4.7,1
507,602150,2018-06-07,06:49,Umea,SE,Europe,63.83,20.26,53.6,62,16.11,75
508,2013392,2018-06-07,06:49,Vilyuysk,RU,Europe,63.75,121.63,77.6,27,8.61,0
509,6067472,2018-06-07,06:49,Marystown,CA,North America,47.17,-55.16,41.15,91,3.58,92
510,4167482,2018-06-07,06:49,Palatka,US,North America,29.65,-81.64,70.21,88,3.13,20
511,3664525,2018-06-07,06:49,Codajas,BR,South America,-3.84,-62.06,74.54,98,2.24,88
512,2015352,2018-06-07,06:49,Terney,RU,Europe,45.05,136.61,47.63,100,6.26,92
513,1787599,2018-06-07,06:49,Xingyi,CN,Asia,24.19,102.82,79.13,53,3.69,12
514,236524,2018-06-07,06:49,Rafai,CF,Africa,4.95,23.92,77.24,89,4.59,0
515,4578737,2018-06-07,06:49,Florence,US,North America,34.2,-79.77,72.12,77,9.62,1
516,3378644,2018-06-07,06:49,Georgetown,GY,South America,6.8,-58.16,75.2,100,4.7,75
517,1687186,2018-06-07,06:49,Sarangani,PH,Asia,5.4,125.46,83.0,100,11.97,32
518,2450173,2018-06-07,06:49,Taoudenni,ML,Africa,22.68,-3.98,79.31,20,11.07,92
519,1259385,2018-06-07,06:49,Port Blair,IN,Asia,11.67,92.75,80.21,100,23.6,92
520,1803936,2018-06-07,06:49,Wuwei,CN,Asia,37.93,102.64,59.96,55,3.69,76
521,1733502,2018-06-07,06:49,Ranau,MY,Asia,5.95,116.67,85.07,52,2.46,32
522,523392,2018-06-07,06:49,Naryan-Mar,RU,Europe,67.67,53.09,38.27,88,22.82,68
523,477039,2018-06-07,06:49,Pavlovskiy,RU,Europe,45.07,37.77,69.8,83,6.71,75
524,2422442,2018-06-07,06:49,Dabola,GN,Africa,10.74,-11.11,64.91,97,2.8,24
525,6324729,2018-06-07,06:49,Halifax,CA,North America,44.65,-63.58,41.0,93,4.7,5
526,1715015,2018-06-07,06:49,Dicabisagan,PH,Asia,17.08,122.42,77.69,100,5.7,92
527,2236967,2018-06-07,06:49,Soyo,AO,Africa,-6.13,12.37,69.32,98,1.23,32
528,3448454,2018-06-07,06:49,Belmonte,BR,South America,-26.84,-53.58,37.55,93,4.59,8
529,2109528,2018-06-07,06:49,Buala,SB,Oceania,-8.15,159.59,82.46,94,1.79,68
530,1734971,2018-06-07,06:49,Pekan,MY,Asia,3.49,103.39,93.2,71,5.82,75
531,5475352,2018-06-07,06:49,Las Cruces,US,North America,32.31,-106.78,86.47,18,4.7,1
532,3526756,2018-06-07,06:49,Isla Mujeres,MX,North America,21.23,-86.73,80.6,83,6.93,40
533,694752,2018-06-07,06:49,Savyntsi,UA,Europe,49.4,37.05,61.49,68,4.47,0
534,2359608,2018-06-07,06:49,Kaya,BF,Africa,13.09,-1.08,76.61,80,10.29,32
535,2084442,2018-06-07,06:49,Vanimo,PG,Oceania,-2.67,141.3,83.27,100,7.94,64
536,5965462,2018-06-07,06:49,Gravelbourg,CA,North America,49.88,-106.56,61.49,36,5.59,56
537,6113406,2018-06-07,06:49,Prince Rupert,CA,North America,54.32,-130.32,48.2,87,6.93,90
538,5972762,2018-06-07,06:49,Hay River,CA,North America,60.82,-115.79,44.6,75,3.36,75
539,2152668,2018-06-07,06:49,Portland,AU,Oceania,-33.35,149.98,53.3,76,3.69,8
540,3407407,2018-06-07,06:49,Aquiraz,BR,South America,-3.9,-38.39,78.8,94,6.93,75
541,777019,2018-06-07,06:49,Vardo,NO,Europe,70.37,31.11,36.59,100,25.28,88
542,2141305,2018-06-07,06:49,Fayaoue,NC,Oceania,-20.65,166.53,70.49,100,20.92,92
543,1507873,2018-06-07,06:49,Chik,RU,Europe,54.99,82.44,84.2,26,4.47,0
544,2075720,2018-06-07,06:49,Broome,AU,Oceania,-17.97,122.23,82.4,58,16.11,0
545,2414659,2018-06-07,06:49,Tokonou,GN,Africa,9.65,-9.78,69.05,97,8.28,80
546,2189343,2018-06-07,06:49,Kaeo,NZ,Oceania,-35.1,173.78,49.07,67,14.09,0
547,1056899,2018-06-07,06:49,Sambava,MG,Africa,-14.27,50.17,75.89,100,1.57,64
548,4866445,2018-06-07,06:49,Mason City,US,North America,43.15,-93.2,67.1,88,7.72,1
549,2038421,2018-06-07,06:49,Bayan,CN,Asia,46.08,127.4,72.74,79,4.59,0
550,2035707,2018-06-07,06:49,Mujiayingzi,CN,Asia,42.12,118.78,70.76,44,3.13,56
551,3474574,2018-06-07,06:49,Palmas,BR,South America,-10.18,-48.33,71.6,83,6.93,0
552,2063036,2018-06-07,06:49,Port Lincoln,AU,Oceania,-34.72,135.86,62.75,85,26.28,88
553,2212775,2018-06-07,06:49,Sabha,LY,Africa,27.03,14.43,87.68,14,14.76,8
554,3671519,2018-06-07,06:49,Puerto Carreno,CO,South America,6.19,-67.49,68.42,98,3.24,92
555,3870282,2018-06-07,06:49,Talcahuano,CL,South America,-36.72,-73.12,41.0,80,4.7,0
556,1706889,2018-06-07,06:49,Puro,PH,Asia,13.13,123.76,80.84,96,9.4,92
557,4342816,2018-06-07,06:49,Sulphur,US,North America,30.24,-93.38,74.82,88,7.61,40
558,1529376,2018-06-07,06:49,Korla,CN,Asia,41.76,86.15,80.03,41,7.83,24
559,563990,2018-06-07,06:49,Dvinskoy,RU,Europe,62.16,45.12,45.29,61,6.6,32
560,370510,2018-06-07,06:49,Marabba,SD,Africa,12.35,32.18,83.72,60,16.78,0
561,3115824,2018-06-07,06:49,Muros,ES,Europe,42.77,-9.06,55.4,93,6.93,75
562,5954718,2018-06-07,06:49,Flin Flon,CA,North America,54.77,-101.88,54.56,74,1.9,92
563,1797181,2018-06-07,06:49,Renqiu,CN,Asia,38.71,116.1,90.29,46,5.14,0
564,2367990,2018-06-07,06:49,Aneho,TG,Africa,6.23,1.6,75.2,88,6.93,40
565,1254709,2018-06-07,06:49,Tezu,IN,Asia,27.93,96.16,73.64,85,1.12,44
566,1609795,2018-06-07,06:49,Khon Buri,TH,Asia,14.52,102.25,89.6,66,10.29,40
567,1488903,2018-06-07,06:49,Turukhansk,RU,Europe,65.8,87.96,64.55,68,22.7,0
568,3451126,2018-06-07,06:49,Bonfim,BR,South America,-20.33,-44.24,59.0,93,3.91,0
569,4951248,2018-06-07,06:49,Somerset,US,North America,41.77,-71.13,52.47,100,4.7,40
570,2520413,2018-06-07,06:49,Campo de Criptana,ES,Europe,39.41,-3.13,47.81,88,4.81,8
571,1798760,2018-06-07,06:49,Pingliang,CN,Asia,35.54,106.68,69.95,42,4.47,92
572,1525798,2018-06-07,06:49,Balkhash,KZ,Asia,46.84,74.98,77.51,60,7.16,0
573,1529660,2018-06-07,06:49,Aksu,CN,Asia,41.12,80.26,65.63,75,3.91,64
574,2508813,2018-06-07,06:49,Adrar,DZ,Africa,27.87,-0.29,75.2,19,10.29,0
575,3448519,2018-06-07,06:49,Sao Mateus,BR,South America,-18.72,-39.86,74.63,95,10.51,0
576,1586185,2018-06-07,06:49,Cao Bang,VN,Asia,22.67,106.25,85.25,54,6.71,0
577,3970634,2018-06-07,06:49,Cardenas,MX,North America,27.62,-110.24,75.08,67,4.14,0
578,2025456,2018-06-07,06:49,Chernyshevskiy,RU,Europe,63.01,112.47,74.45,40,4.25,24
579,2132606,2018-06-07,06:49,Samarai,PG,Oceania,-10.62,150.67,79.22,98,15.77,92
580,2457163,2018-06-07,06:49,Gao,ML,Africa,16.28,-0.04,84.98,54,12.53,8
581,217562,2018-06-07,06:49,Butembo,CD,Africa,0.12,29.29,67.07,88,3.13,0
582,256824,2018-06-07,06:49,Kavos,GR,Europe,38.83,22.83,78.39,42,4.7,20
583,1496503,2018-06-07,06:49,Noyabrsk,RU,Europe,63.2,75.45,76.43,69,18.23,0
584,2274895,2018-06-07,06:49,Monrovia,LR,Africa,6.33,-10.8,77.0,94,5.26,75
585,933290,2018-06-07,06:49,Mookane,BW,Africa,-23.68,26.66,42.86,73,3.91,0
586,153247,2018-06-07,06:49,Monduli,TZ,Africa,-3.3,36.45,61.32,100,11.41,75
587,1529651,2018-06-07,06:49,Altay,CN,Asia,47.83,88.13,68.33,21,2.8,0
588,2172880,2018-06-07,06:49,Byron Bay,AU,Oceania,-28.65,153.62,68.0,56,14.99,40
589,1278796,2018-06-07,06:49,Amguri,IN,Asia,26.81,94.53,78.59,88,5.03,32
590,3354540,2018-06-07,06:49,Omaruru,NA,Africa,-21.42,15.95,43.13,67,10.29,0
591,3394023,2018-06-07,06:49,Natal,BR,South America,-5.81,-35.21,77.0,88,4.7,75
592,2522325,2018-06-07,06:49,Aguimes,ES,Europe,27.91,-15.45,66.2,72,16.11,20
593,6453395,2018-06-07,06:49,Halden,NO,Europe,59.12,11.39,66.2,59,8.05,0
594,3405051,2018-06-07,06:49,Borba,BR,South America,-4.39,-59.59,73.91,99,2.46,24
595,1791748,2018-06-07,06:49,Wanxian,CN,Asia,30.8,108.39,83.63,60,3.24,36
596,361055,2018-06-07,06:49,Ismailia,EG,Africa,30.6,32.27,78.8,74,6.93,0
597,359792,2018-06-07,06:49,Aswan,EG,Africa,24.09,32.9,86.15,29,6.15,0
598,5905393,2018-06-07,06:49,Bonavista,CA,North America,48.65,-53.11,37.64,94,6.93,88
599,6316343,2018-06-07,06:49,Alta Floresta,BR,South America,-9.87,-56.08,73.37,95,1.9,24
600,3424934,2018-06-07,06:49,Saint-Pierre,PM,North America,46.77,-56.17,43.04,89,7.16,76
601,2027042,2018-06-07,06:49,Batagay-Alyta,RU,Europe,67.8,130.41,70.49,38,6.6,0
602,492860,2018-06-07,06:49,Sindor,RU,Europe,62.87,51.9,47.45,73,6.15,32
603,2242885,2018-06-07,06:49,Camabatela,AO,Africa,-8.19,15.37,51.41,72,5.14,0
604,2012530,2018-06-07,06:49,Zhigansk,RU,Europe,66.77,123.37,74.63,36,10.18,0
605,5993072,2018-06-07,06:49,Kitimat,CA,North America,54.02,-128.69,46.4,87,1.45,90
606,2019296,2018-06-07,06:49,Never,RU,Europe,53.98,124.16,70.49,59,4.14,48
607,103630,2018-06-07,06:49,Najran,SA,Asia,17.54,44.22,89.6,29,5.93,0
608,3694112,2018-06-07,06:49,Paita,PE,South America,-5.09,-81.11,61.85,92,5.93,0
609,3428576,2018-06-07,06:49,San Pedro,AR,South America,-33.68,-59.66,45.74,80,14.54,20
610,2156927,2018-06-07,06:49,Moree,AU,Oceania,-29.46,149.84,68.33,50,12.86,0
611,3012655,2018-06-07,06:49,Issoudun,FR,Europe,46.95,1.99,60.8,93,6.93,90
612,479071,2018-06-07,06:49,Umba,RU,Europe,66.69,34.34,44.39,78,10.63,44
613,2386756,2018-06-07,06:49,Gamboula,CF,Africa,4.12,15.14,70.94,91,9.28,0
614,6164831,2018-06-07,06:49,Thessalon,CA,North America,46.26,-83.55,52.88,81,2.13,90
615,2299625,2018-06-07,06:49,Kintampo,GH,Africa,8.05,-1.73,74.45,89,4.7,76
616,3924341,2018-06-07,06:49,Aiquile,BO,South America,-18.2,-65.18,40.88,75,2.68,0
617,1269507,2018-06-07,06:49,Jaisalmer,IN,Asia,26.91,70.91,100.46,44,13.65,0
618,157429,2018-06-07,06:49,Kilindoni,TZ,Africa,-7.91,39.67,77.33,99,20.69,0
619,1280957,2018-06-07,06:49,Jiuquan,CN,Asia,39.73,98.49,56.54,45,10.96,88
620,3905088,2018-06-07,06:49,San Ramon,BO,South America,-13.27,-64.62,61.13,90,3.91,8
621,2294915,2018-06-07,06:49,Takoradi,GH,Africa,4.89,-1.75,78.32,100,6.71,92
622,1496329,2018-06-07,06:49,Okoneshnikovo,RU,Europe,54.84,75.08,82.19,43,11.18,76
623,3422683,2018-06-07,06:49,Kangaatsiaq,GL,North America,68.31,-53.46,33.32,93,20.8,88
624,3601402,2018-06-07,06:49,Savannah Bight,HN,North America,16.45,-85.85,82.82,98,20.69,92
625,113659,2018-06-07,06:49,Tabas,IR,Asia,33.6,56.92,102.89,13,8.39,0
626,706803,2018-06-07,06:49,Karapyshi,UA,Europe,49.64,30.79,62.39,52,4.7,8
627,6138118,2018-06-07,06:49,Sainte-Thecle,CA,North America,46.82,-72.5,48.35,92,4.36,56
628,3356832,2018-06-07,06:49,Henties Bay,NA,Africa,-22.12,14.28,65.09,69,18.01,0
629,2208425,2018-06-07,06:49,Zuwarah,LY,Africa,32.93,12.08,70.58,93,6.93,0
630,2098329,2018-06-07,06:49,Daru,PG,Oceania,-9.07,143.21,79.85,86,15.77,32
631,1622318,2018-06-07,06:49,Waingapu,ID,Asia,-9.65,120.26,86.42,57,8.16,44
632,3582672,2018-06-07,06:49,Belmopan,BZ,North America,17.25,-88.77,79.58,77,3.8,92
633,155921,2018-06-07,06:49,Liwale,TZ,Africa,-9.8,37.92,68.15,60,6.71,0
634,1502725,2018-06-07,06:49,Yugorsk,RU,Europe,61.32,63.33,55.82,83,7.16,80
635,5861897,2018-06-07,06:49,Fairbanks,US,North America,64.84,-147.72,58.39,62,6.93,75
636,5917430,2018-06-07,06:49,Caronport,CA,North America,50.46,-105.81,62.12,34,8.61,8
637,2015852,2018-06-07,06:49,Svetlaya,RU,Europe,46.54,138.33,46.28,100,17.56,88
638,3572627,2018-06-07,06:49,Cockburn Town,BS,North America,24.03,-74.52,80.57,97,7.94,92
639,1506268,2018-06-07,06:49,Gornopravdinsk,RU,Europe,60.06,69.92,84.53,31,12.97,0
640,1632694,2018-06-07,06:49,Pangkalanbuun,ID,Asia,-2.68,111.62,88.31,77,4.14,36
641,1731248,2018-06-07,06:49,Alugan,PH,Asia,12.22,125.48,82.91,95,19.69,88
642,1170951,2018-06-07,06:49,Mansehra,PK,Asia,34.33,73.2,91.28,44,2.35,0
643,2151437,2018-06-07,06:49,Rockhampton,AU,Oceania,-23.38,150.51,77.0,41,9.17,0
644,488881,2018-06-07,06:49,Starobaltachevo,RU,Europe,56.0,55.92,55.91,81,10.4,32
645,1267433,2018-06-07,06:49,Kattivakkam,IN,Asia,13.22,80.32,91.4,59,9.17,40
646,1895695,2018-06-07,06:49,Kushima,JP,Asia,31.5,131.29,73.4,94,2.24,75
647,1261853,2018-06-07,06:49,Narasannapeta,IN,Asia,18.42,84.04,94.97,62,5.26,0
648,5710035,2018-06-07,06:49,West Wendover,US,North America,40.74,-114.07,75.2,22,16.11,1
649,701305,2018-06-07,06:49,Mezhova,UA,Europe,48.26,36.73,62.12,54,6.15,0
650,1496073,2018-06-07,06:49,Orlik,RU,Europe,52.51,99.83,52.67,58,3.8,36
651,1337613,2018-06-07,06:49,Kulhudhuffushi,MV,Asia,6.62,73.07,82.73,100,19.8,92
652,3383570,2018-06-07,06:49,Marienburg,SR,South America,5.88,-55.04,73.4,100,2.24,40
653,511002,2018-06-07,06:49,Pervomaysk,RU,Europe,54.87,43.81,53.3,77,7.16,0
654,1275665,2018-06-07,06:49,Bikaner,IN,Asia,28.02,73.32,107.66,34,9.95,0
655,6100069,2018-06-07,06:49,Peace River,CA,North America,56.23,-117.29,46.4,81,2.24,75
656,2446796,2018-06-07,06:49,Bilma,NE,Africa,18.69,12.92,83.63,19,7.05,0
657,3938415,2018-06-07,06:49,Ilo,PE,South America,-17.65,-71.34,56.63,97,2.35,88
658,3452925,2018-06-07,06:50,Niteroi,BR,South America,-29.95,-51.16,48.2,100,4.7,88
659,3698540,2018-06-07,06:50,Chachapoyas,PE,South America,-6.23,-77.87,57.08,96,1.9,80
660,5686121,2018-06-07,06:50,Whitefish,US,North America,48.41,-114.33,50.0,87,1.01,1
661,5877641,2018-06-07,06:50,Wasilla,US,North America,61.58,-149.44,56.01,76,1.9,1
662,2029947,2018-06-07,06:50,Moron,MN,Asia,47.38,110.32,68.06,47,11.41,12
663,136702,2018-06-07,06:50,Dehloran,IR,Asia,32.69,47.27,108.02,14,4.47,0
664,2426370,2018-06-07,06:50,Oum Hadjer,TD,Africa,13.3,19.7,82.91,45,7.72,0
665,3397763,2018-06-07,06:50,Jacareacanga,BR,South America,-6.22,-57.76,74.45,97,1.68,12
666,2191562,2018-06-07,06:50,Dunedin,NZ,Oceania,-45.87,170.5,43.76,90,14.43,0
667,1728573,2018-06-07,06:50,Balagunan,PH,Asia,7.49,125.52,91.4,52,9.17,20
668,5850554,2018-06-07,06:50,Makakilo City,US,North America,21.35,-158.09,73.9,94,4.7,90
669,2013465,2018-06-07,06:50,Verkhoyansk,RU,Europe,67.55,133.39,72.56,31,3.8,0
670,6145951,2018-06-07,06:50,Shellbrook,CA,North America,53.22,-106.39,51.8,71,5.82,20
671,3868633,2018-06-07,06:50,Vallenar,CL,South America,-28.58,-70.76,42.5,60,3.8,0
672,3403687,2018-06-07,06:50,Camocim,BR,South America,-2.9,-40.84,75.26,93,7.38,0
673,292223,2018-06-07,06:50,Dubai,AE,Asia,25.27,55.3,106.74,24,12.75,20
674,1816917,2018-06-07,06:50,Baoshan,CN,Asia,31.41,121.49,82.26,55,8.95,40
675,3868626,2018-06-07,06:50,Valparaiso,CL,South America,-33.04,-71.63,51.28,58,4.7,0
676,2428228,2018-06-07,06:50,Massakory,TD,Africa,13.0,15.73,79.04,64,2.91,0
677,3144733,2018-06-07,06:50,Nesbyen,NO,Europe,60.57,9.1,55.37,65,2.68,12
678,160677,2018-06-07,06:50,Chake Chake,TZ,Africa,-5.25,39.77,79.22,100,23.04,36
679,3626402,2018-06-07,06:50,Tariba,VE,South America,7.82,-72.22,64.82,97,1.23,76
680,2399697,2018-06-07,06:50,Libreville,GA,Africa,0.39,9.45,78.8,83,11.41,20
681,4332455,2018-06-07,06:50,Mandeville,US,North America,30.36,-90.07,74.03,94,1.9,1
682,2068655,2018-06-07,06:50,Katherine,AU,Oceania,-14.47,132.26,86.0,28,11.41,0
683,3491161,2018-06-07,06:50,Bull Savanna,JM,North America,17.89,-77.59,74.81,83,3.8,92
684,161974,2018-06-07,06:50,Gazanjyk,TM,Asia,39.24,55.52,84.98,38,3.47,0
685,3491355,2018-06-07,06:50,Black River,JM,North America,18.03,-77.85,80.6,83,3.36,20
686,2012349,2018-06-07,06:50,Krasnyy Chikoy,RU,Europe,50.36,108.75,65.54,55,3.47,44
687,2127202,2018-06-07,06:50,Anadyr,RU,Europe,64.73,177.51,50.0,71,6.71,75
688,1275920,2018-06-07,06:50,Bhinmal,IN,Asia,25.01,72.27,98.48,44,14.2,0
689,1174451,2018-06-07,06:50,Keti Bandar,PK,Asia,24.14,67.45,86.69,94,22.15,0
690,2027244,2018-06-07,06:50,Bagdarin,RU,Europe,54.44,113.59,68.51,45,3.47,12
691,3421982,2018-06-07,06:50,Maniitsoq,GL,North America,65.42,-52.9,35.75,91,0.67,88
692,3388456,2018-06-07,06:50,Sao Jose da Coroa Grande,BR,South America,-8.9,-35.15,72.65,100,2.46,92
693,2524371,2018-06-07,06:50,Locri,IT,Europe,38.24,16.26,72.5,83,2.24,20
694,1510689,2018-06-07,06:50,Baykit,RU,Europe,61.68,96.39,67.43,55,6.71,20
695,533418,2018-06-07,06:50,Lukovetskiy,RU,Europe,64.29,41.92,46.4,61,11.18,40
696,4276792,2018-06-07,06:50,Oskaloosa,US,North America,39.22,-95.31,75.18,53,20.8,40
697,3463939,2018-06-07,06:50,Espinosa,BR,South America,-14.92,-42.81,64.64,94,4.59,80
698,2112444,2018-06-07,06:50,Kamaishi,JP,Asia,39.28,141.86,86.0,37,8.05,20
699,905789,2018-06-07,06:50,Mpongwe,ZM,Africa,-13.51,28.16,50.15,75,6.82,0
700,3147822,2018-06-07,06:50,Gravdal,NO,Europe,59.79,5.78,59.0,82,3.36,75
701,2015913,2018-06-07,06:50,Suntar,RU,Europe,62.16,117.65,82.73,26,6.6,0
702,3461408,2018-06-07,06:50,Ilheus,BR,South America,-14.79,-39.05,69.8,100,3.36,20
703,1634614,2018-06-07,06:50,Nabire,ID,Asia,-3.36,135.5,68.78,99,1.79,92
704,3564394,2018-06-07,06:50,Chambas,CU,North America,22.19,-78.91,78.8,88,2.24,75
705,3114567,2018-06-07,06:50,Palafrugell,ES,Europe,41.92,3.16,59.0,100,3.36,40
706,337010,2018-06-07,06:50,Gelemso,ET,Africa,8.81,40.52,69.32,69,3.69,44
707,1503726,2018-06-07,06:50,Kharp,RU,Europe,66.82,65.8,41.33,100,4.92,68
708,2013406,2018-06-07,06:50,Vidim,RU,Europe,56.41,103.11,64.46,49,3.36,24
709,544119,2018-06-07,06:50,Kosino,RU,Europe,58.41,51.28,48.17,85,12.53,12
710,5009004,2018-06-07,06:50,Sault Sainte Marie,CA,North America,46.49,-84.36,53.01,81,5.14,90
711,5813747,2018-06-07,06:50,Toppenish,US,North America,46.38,-120.31,57.2,58,4.7,1
712,1054035,2018-06-07,06:50,Vohibinany,MG,Africa,-17.35,49.03,71.66,80,2.68,0
713,1496511,2018-06-07,06:50,Novyy Urengoy,RU,Europe,66.08,76.63,40.34,86,2.91,56
714,5797693,2018-06-07,06:50,Hoquiam,US,North America,46.98,-123.89,56.05,82,5.82,90
715,2229798,2018-06-07,06:50,Kousseri,CM,Africa,12.08,15.03,84.2,51,10.29,0
716,6690295,2018-06-07,06:50,Saint-Denis,RE,Africa,-20.87,55.47,82.4,58,9.17,20
717,779261,2018-06-07,06:50,Kjollefjord,NO,Europe,70.95,27.35,37.4,100,18.34,75
718,4011743,2018-06-07,06:50,Valentin Gomez Farias,MX,North America,24.05,-104.7,75.35,20,10.4,88
719,3420846,2018-06-07,06:50,Qaqortoq,GL,North America,60.72,-46.03,37.4,86,3.36,75
720,251833,2018-06-07,06:50,Volos,GR,Europe,39.36,22.94,78.4,42,4.7,20
721,5812604,2018-06-07,06:50,Sunnyside,US,North America,46.32,-120.01,60.1,58,4.7,1
722,713749,2018-06-07,06:50,Okhtyrka,UA,Europe,50.31,34.89,59.78,66,4.59,0
723,3675504,2018-06-07,06:50,Manaure,CO,South America,11.78,-72.45,82.19,93,21.81,12
724,2155862,2018-06-07,06:50,Nambour,AU,Oceania,-26.63,152.96,64.46,100,9.4,92
725,780687,2018-06-07,06:50,Berlevag,NO,Europe,70.86,29.09,35.35,100,18.34,75
726,1735902,2018-06-07,06:50,Sibu,MY,Asia,2.29,111.83,91.4,63,5.82,75
727,6320062,2018-06-07,06:50,Vila Velha,BR,South America,-3.71,-38.6,78.8,94,6.93,75
728,478064,2018-06-07,06:50,Ust-Kishert,RU,Europe,57.36,57.24,56.99,73,8.39,48
729,6148373,2018-06-07,06:50,Sioux Lookout,CA,North America,50.1,-91.92,41.0,100,3.91,5
730,3393471,2018-06-07,06:50,Oriximina,BR,South America,-1.77,-55.87,74.99,98,2.91,12
731,490040,2018-06-07,06:50,Sovetskiy,RU,Europe,56.76,48.47,50.33,80,8.61,0
732,2152659,2018-06-07,06:50,Port Macquarie,AU,Oceania,-31.43,152.91,64.4,59,8.05,40
733,2122614,2018-06-07,06:50,Okha,RU,Europe,53.59,142.95,48.98,67,16.67,0
734,5563839,2018-06-07,06:50,Fortuna,US,North America,40.6,-124.16,54.73,93,4.7,90
735,921889,2018-06-07,06:50,Fomboni,KM,Africa,-12.28,43.74,79.4,100,18.79,8
736,4387496,2018-06-07,06:50,Fulton,US,North America,38.85,-91.95,72.19,78,5.26,0
737,1624041,2018-06-07,06:50,Ternate,ID,Asia,0.8,127.4,84.71,97,11.74,44
738,2127060,2018-06-07,06:50,Arman,RU,Europe,59.7,150.17,59.0,54,4.47,75
739,189741,2018-06-07,06:50,Lamu,KE,Africa,-2.27,40.9,81.02,81,23.82,56
740,764917,2018-06-07,06:50,Miechow,PL,Europe,50.36,20.03,60.94,54,9.17,0
741,107304,2018-06-07,06:50,Buraydah,SA,Asia,26.33,43.97,98.6,25,14.99,5
742,3374333,2018-06-07,06:50,Praia,CV,Africa,14.92,-23.51,73.4,78,5.82,0
743,1815427,2018-06-07,06:50,Chaohu,CN,Asia,31.63,117.88,91.4,49,4.47,75
744,2016910,2018-06-07,06:50,Severobaykalsk,RU,Europe,55.65,109.32,57.71,79,2.13,20
745,584051,2018-06-07,06:50,Svetlogorsk,RU,Europe,53.14,59.15,57.2,62,13.42,90
746,2140558,2018-06-07,06:50,Koumac,NC,Oceania,-20.56,164.28,67.52,100,8.16,92
747,1863495,2018-06-07,06:50,Gushikawa,JP,Asia,26.35,127.87,87.82,74,3.36,40
748,1506938,2018-06-07,06:50,Erzin,RU,Europe,50.26,95.16,73.46,19,5.59,0
749,2967856,2018-06-07,06:50,Vitry-le-Francois,FR,Europe,48.73,4.58,64.44,93,5.82,90
750,2342490,2018-06-07,06:50,Funtua,NG,Africa,11.52,7.31,72.47,94,7.38,12
751,3697838,2018-06-07,06:50,Contamana,PE,South America,-7.35,-75.01,70.31,93,2.01,64
752,3372783,2018-06-07,06:50,Ponta Delgada,PT,Europe,37.73,-25.67,60.8,77,5.82,20
753,3353383,2018-06-07,06:50,Rundu,NA,Africa,-17.91,19.77,42.14,67,7.16,0
754,3393692,2018-06-07,06:50,Itarema,BR,South America,-2.92,-39.92,74.63,95,6.38,8
755,5656497,2018-06-07,06:50,Havre,US,North America,48.55,-109.68,62.6,59,3.36,20
756,1606851,2018-06-07,06:50,Sai Buri,TH,Asia,6.7,101.62,91.54,70,10.29,20
757,1512101,2018-06-07,06:50,Agirish,RU,Europe,61.92,63.02,54.74,62,5.82,88
758,219414,2018-06-07,06:50,Basoko,CD,Africa,1.23,23.61,80.57,75,1.9,24
759,141736,2018-06-07,06:50,Bam,IR,Asia,29.11,58.36,101.63,9,6.71,0
760,2315728,2018-06-07,06:50,Gemena,CD,Africa,3.25,19.78,73.73,89,2.91,0
761,1488950,2018-06-07,06:50,Turan,RU,Europe,52.15,93.92,67.25,50,1.57,0
762,93709,2018-06-07,06:50,Mandali,IQ,Asia,33.75,45.55,100.28,20,10.18,0
763,2034651,2018-06-07,06:50,Suileng,CN,Asia,47.25,127.08,70.49,85,4.81,44
764,1045114,2018-06-07,06:50,Inhambane,MZ,Africa,-23.87,35.38,64.4,93,9.17,75
765,4336153,2018-06-07,06:50,Opelousas,US,North America,30.53,-92.08,70.75,100,2.24,1
766,1252578,2018-06-07,06:50,Gasa,BT,Asia,27.91,89.73,38.36,79,1.12,48
767,1641497,2018-06-07,06:50,Kanigoro,ID,Asia,-8.13,112.22,80.39,82,10.74,0
768,3925212,2018-06-07,06:50,Cacoal,BR,South America,-11.43,-61.44,65.18,94,2.35,0
769,1154689,2018-06-07,06:50,Ko Samui,TH,Asia,9.54,99.94,93.2,67,11.41,20
770,2834498,2018-06-07,06:50,Schweinfurt,DE,Europe,50.05,10.23,69.8,73,5.59,20
771,3816362,2018-06-07,06:50,Benemerito de las Americas,MX,North America,16.52,-90.64,71.3,98,2.13,48
772,1783956,2018-06-07,06:50,Yatou,CN,Asia,33.81,104.32,49.79,97,1.9,92
773,3621607,2018-06-07,06:50,Santa Cruz,CR,North America,10.26,-85.58,77.0,83,4.7,0
774,6071421,2018-06-07,06:50,Meadow Lake,CA,North America,54.13,-108.44,51.59,70,4.7,0
775,1524296,2018-06-07,06:50,Esil,KZ,Asia,51.96,66.41,85.25,39,9.73,8
776,3527543,2018-06-07,06:50,Frontera Comalapa,MX,North America,15.66,-92.14,62.03,96,1.34,92
777,160961,2018-06-07,06:50,Bukoba,TZ,Africa,-1.33,31.81,71.6,73,3.36,75
778,137268,2018-06-07,06:50,Susangerd,IR,Asia,31.56,48.19,107.6,15,6.93,0
779,3108877,2018-06-07,06:50,Sitges,ES,Europe,41.24,1.82,61.38,82,5.82,20
780,1252795,2018-06-07,06:50,Yanam,IN,Asia,16.73,82.22,79.13,100,8.28,88
781,1071296,2018-06-07,06:50,Antalaha,MG,Africa,-14.9,50.28,75.53,95,2.57,56
782,1516589,2018-06-07,06:50,Zhezkazgan,KZ,Asia,47.8,67.71,89.6,11,15.66,75
783,1028918,2018-06-07,06:50,Pemba,MZ,Africa,-12.97,40.52,72.56,100,19.46,0
784,470762,2018-06-07,06:50,Vyartsilya,RU,Europe,62.18,30.69,48.17,48,12.64,76
785,1283217,2018-06-07,06:50,Khandbari,NP,Asia,27.38,87.21,48.62,64,0.67,56
786,5493811,2018-06-07,06:50,Taos,US,North America,36.41,-105.57,48.52,64,2.57,1
787,2460954,2018-06-07,06:50,Araouane,ML,Africa,18.9,-3.53,85.97,16,13.2,12
788,1785036,2018-06-07,06:50,Zhangye,CN,Asia,38.94,100.46,65.9,50,8.95,92
789,1718234,2018-06-07,06:50,Caruray,PH,Asia,10.31,119.01,85.7,100,18.01,80
790,3921141,2018-06-07,06:50,Charagua,BO,South America,-19.79,-63.2,45.29,92,5.93,36
791,3996387,2018-06-07,06:50,Matehuala,MX,North America,23.65,-100.64,63.56,64,6.38,12
792,779622,2018-06-07,06:50,Havoysund,NO,Europe,71.0,24.66,35.6,93,8.05,75
793,2088122,2018-06-07,06:50,Port Moresby,PG,Oceania,-9.47,147.16,80.6,74,23.04,75
794,240498,2018-06-07,06:50,Bangassou,CF,Africa,4.74,22.82,75.44,85,3.02,0
795,336454,2018-06-07,06:50,Ginir,ET,Africa,7.14,40.71,67.16,87,7.61,24
796,3570392,2018-06-07,06:50,Le Vauclin,MQ,North America,14.55,-60.84,78.8,78,9.17,75
797,3872395,2018-06-07,06:50,San Antonio,CL,South America,-33.58,-71.61,48.2,81,8.05,0
798,3664321,2018-06-07,06:50,Eirunepe,BR,South America,-6.66,-69.87,69.23,95,2.13,0
799,1529484,2018-06-07,06:50,Hami,CN,Asia,42.84,93.51,89.75,24,4.7,20
800,1813206,2018-06-07,06:50,Daye,CN,Asia,30.1,114.98,83.99,81,5.59,36
801,3843123,2018-06-07,06:50,Neuquen,AR,South America,-38.95,-68.06,30.2,92,2.24,0
802,2177671,2018-06-07,06:50,Armidale,AU,Oceania,-30.51,151.67,51.05,90,7.38,44
803,2209055,2018-06-07,06:50,Waddan,LY,Africa,29.16,16.14,86.24,16,12.86,0
804,3397893,2018-06-07,06:50,Itacoatiara,BR,South America,-3.14,-58.44,74.09,99,2.35,36
805,3141667,2018-06-07,06:50,Roald,NO,Europe,62.58,6.12,51.8,81,3.36,75
806,1268865,2018-06-07,06:50,Jodhpur,IN,Asia,26.3,73.04,102.71,33,12.97,0
807,2401357,2018-06-07,06:50,Cocobeach,GA,Africa,1.01,9.58,78.8,83,11.41,20
808,4984075,2018-06-07,06:50,Alpena,US,North America,45.06,-83.43,53.67,81,2.57,40
809,6145890,2018-06-07,06:50,Shelburne,CA,North America,44.08,-80.2,52.68,76,5.82,75
810,2077895,2018-06-07,06:50,Alice Springs,AU,Oceania,-23.7,133.88,78.8,9,8.05,64
811,3458498,2018-06-07,06:50,Linhares,BR,South America,-19.38,-40.06,65.09,96,5.03,0
812,2139521,2018-06-07,06:50,Noumea,NC,Oceania,-22.28,166.46,66.2,93,5.82,92
813,2164422,2018-06-07,06:50,Griffith,AU,Oceania,-34.29,146.06,62.48,68,11.41,56
814,2079582,2018-06-07,06:50,Alyangula,AU,Oceania,-13.85,136.42,79.67,84,12.64,64
815,3873441,2018-06-07,06:50,Rengo,CL,South America,-34.41,-70.86,42.8,87,4.7,90
816,160260,2018-06-07,06:50,Namanga,TZ,Africa,-6.78,39.27,75.47,73,16.11,20
817,2157698,2018-06-07,06:50,Mildura,AU,Oceania,-34.18,142.16,59.78,61,13.31,56
818,5978765,2018-06-07,06:50,Huntsville,CA,North America,45.33,-79.22,48.2,93,4.7,90
819,1215502,2018-06-07,06:50,Banda Aceh,ID,Asia,5.56,95.32,89.84,59,6.26,32
820,1263780,2018-06-07,06:50,Manjeshwar,IN,Asia,12.72,74.89,78.8,88,4.7,75
821,6149374,2018-06-07,06:50,Slave Lake,CA,North America,55.28,-114.77,50.0,71,2.68,1
822,2960935,2018-06-07,06:50,Wicklow,IE,Europe,53.0,-6.42,55.4,87,4.7,0
823,1729564,2018-06-07,06:50,Bacolod,PH,Asia,10.68,122.95,82.91,84,13.65,68
824,1170222,2018-06-07,06:50,Mitha Tiwana,PK,Asia,32.24,72.11,105.23,37,3.13,0
825,5208292,2018-06-07,06:50,Arroyo,US,North America,41.39,-78.88,46.26,87,5.82,90
826,2381334,2018-06-07,06:50,Atar,MR,Africa,20.52,-13.05,78.59,32,4.7,12
827,5856516,2018-06-07,06:50,Ahuimanu,US,North America,21.44,-157.84,73.87,88,10.29,90
828,2322794,2018-06-07,06:50,Suleja,NG,Africa,9.18,7.18,75.2,88,3.36,92
829,3470709,2018-06-07,06:50,Barra do Garcas,BR,South America,-15.89,-52.26,63.83,86,2.8,0
830,690820,2018-06-07,06:50,Uhlove,UA,Europe,44.82,33.6,66.08,86,12.97,8
831,1307741,2018-06-07,06:50,Myitkyina,MM,Asia,25.38,97.4,80.75,100,4.59,68
832,2504703,2018-06-07,06:50,Tigzirt,DZ,Africa,36.57,4.2,56.99,87,2.57,32
833,3921355,2018-06-07,06:50,Challapata,BO,South America,-18.9,-66.78,19.82,76,3.47,0
834,2346229,2018-06-07,06:50,Calabar,NG,Africa,4.98,8.34,76.7,100,4.25,92
835,775183,2018-06-07,06:50,Brzesko,PL,Europe,49.97,20.61,59.0,54,9.17,0
836,1490624,2018-06-07,06:50,Surgut,RU,Europe,61.25,73.4,86.0,28,15.66,0
837,3353540,2018-06-07,06:50,Rehoboth,NA,Africa,-23.31,17.08,31.34,72,2.8,0
838,2349788,2018-06-07,06:50,Ankpa,NG,Africa,7.37,7.63,74.99,96,8.39,32
839,1502847,2018-06-07,06:50,Plotnikovo,RU,Europe,55.04,83.4,84.2,26,4.47,0
840,3438102,2018-06-07,06:50,Fuerte Olimpo,PY,South America,-21.04,-57.87,56.45,98,6.6,92
841,4433039,2018-06-07,06:50,Laurel,US,North America,31.69,-89.13,69.28,100,2.13,1
842,6171633,2018-06-07,06:50,Ucluelet,CA,North America,48.94,-125.55,48.08,92,1.68,56
843,4413595,2018-06-07,06:50,Warrensburg,US,North America,38.76,-93.74,72.75,64,9.17,40
844,889215,2018-06-07,06:50,Kariba,ZW,Africa,-16.53,28.78,54.56,89,3.47,0
845,4314295,2018-06-07,06:50,Abbeville,US,North America,29.97,-92.13,72.37,100,4.59,1
846,1310120,2018-06-07,06:50,Mawlaik,MM,Asia,23.63,94.42,80.48,90,2.91,88
847,3924679,2018-06-07,06:50,Vilhena,BR,South America,-12.74,-60.15,60.23,90,2.01,0
848,5915327,2018-06-07,06:50,Cap-aux-Meules,CA,North America,47.38,-61.86,42.86,95,9.17,0
849,3689325,2018-06-07,06:50,Mutis,CO,South America,6.23,-77.4,75.26,100,5.37,88
850,2125693,2018-06-07,06:50,Evensk,RU,Europe,61.92,159.24,49.25,70,3.91,8
851,1014034,2018-06-07,06:50,Carnarvon,ZA,Africa,-30.97,22.13,40.43,56,10.74,0
852,933077,2018-06-07,06:50,Shakawe,BW,Africa,-18.36,21.84,42.5,84,8.95,0
853,3663529,2018-06-07,06:50,Manacapuru,BR,South America,-3.3,-60.62,73.64,100,3.13,92
854,3463237,2018-06-07,06:50,Florianopolis,BR,South America,-27.6,-48.55,57.2,93,5.82,75
855,5866063,2018-06-07,06:50,Kenai,US,North America,60.55,-151.26,54.48,71,4.7,1
856,1276870,2018-06-07,06:50,Barpali,IN,Asia,21.2,83.58,95.33,55,4.47,36
857,138025,2018-06-07,06:50,Damghan,IR,Asia,36.17,54.34,80.93,62,4.36,0
858,1171991,2018-06-07,06:51,Liliani,PK,Asia,32.21,72.95,100.73,52,5.59,0
859,2138555,2018-06-07,06:51,Poum,NC,Oceania,-20.23,164.02,70.4,100,13.98,88
860,3183284,2018-06-07,06:51,Alghero,IT,Europe,40.56,8.32,66.2,100,3.36,20
861,2643862,2018-06-07,06:51,Loanhead,GB,Europe,55.88,-3.15,52.41,93,4.7,90
862,3532499,2018-06-07,06:51,Tecoanapa,MX,North America,16.99,-99.26,84.2,74,4.7,40
863,480716,2018-06-07,06:51,Tuapse,RU,Europe,44.1,39.07,74.27,68,3.13,8
864,3573374,2018-06-07,06:51,The Valley,AI,North America,18.22,-63.06,80.6,74,10.29,40
865,5516233,2018-06-07,06:51,Amarillo,US,North America,35.21,-101.83,79.56,41,16.11,1
866,3441894,2018-06-07,06:51,Maldonado,UY,South America,-34.91,-54.96,48.2,87,8.05,0
867,3453060,2018-06-07,06:51,Pontes e Lacerda,BR,South America,-15.23,-59.33,59.33,87,2.68,8
868,4893171,2018-06-07,06:51,Freeport,US,North America,42.3,-89.62,66.74,77,3.36,1
869,1070940,2018-06-07,06:51,Fenoarivo,MG,Africa,-18.93,47.44,62.6,63,3.36,0
870,4034496,2018-06-07,06:51,Fare,PF,Oceania,-16.7,-151.02,81.02,100,12.08,92
871,3352263,2018-06-07,06:51,Warmbad,NA,Africa,-28.45,18.73,46.1,53,8.39,0
872,3165524,2018-06-07,06:51,Turin,IT,Europe,45.07,7.68,62.65,88,3.36,75
873,5484874,2018-06-07,06:51,Portales,US,North America,34.19,-103.33,72.27,43,10.63,1
874,5648657,2018-06-07,06:51,Dillon,US,North America,45.22,-112.64,49.61,85,2.13,64
875,1213855,2018-06-07,06:51,Sibolga,ID,Asia,1.74,98.78,84.08,67,2.68,0
876,2090495,2018-06-07,06:51,Morehead,PG,Oceania,-8.71,141.64,85.16,54,15.77,32
877,5488441,2018-06-07,06:51,Roswell,US,North America,33.39,-104.52,81.46,26,5.82,1
878,2270385,2018-06-07,06:51,Camacha,PT,Europe,33.08,-16.33,64.4,93,5.82,40
879,1501000,2018-06-07,06:51,Kyshtovka,RU,Europe,56.56,76.62,85.25,37,9.95,0
880,3946820,2018-06-07,06:51,Barranca,PE,South America,-10.75,-77.76,56.72,100,3.02,56
881,3692020,2018-06-07,06:51,Saquena,PE,South America,-4.67,-73.52,68.6,97,4.81,0
882,1176048,2018-06-07,06:51,Jati,PK,Asia,24.35,68.27,97.58,50,20.92,0
883,3868210,2018-06-07,06:51,Vilcun,CL,South America,-38.65,-72.23,18.65,70,2.57,0
884,3622537,2018-06-07,06:51,Parrita,CR,North America,9.52,-84.33,69.8,94,2.24,40
885,502265,2018-06-07,06:51,Mirnyy,RU,Europe,56.57,36.46,52.58,67,9.73,0
886,2013918,2018-06-07,06:51,Ust-Maya,RU,Europe,60.42,134.54,65.99,44,7.38,12
887,921786,2018-06-07,06:51,Mitsamiouli,KM,Africa,-11.38,43.28,82.4,58,23.04,20
888,3832791,2018-06-07,06:51,Villa Carlos Paz,AR,South America,-31.42,-64.5,39.2,80,9.17,0
889,3897347,2018-06-07,06:51,Calama,CL,South America,-22.46,-68.93,41.0,17,18.34,0
890,1521762,2018-06-07,06:51,Kurchum,KZ,Asia,48.57,83.65,79.13,52,3.69,0
891,532096,2018-06-07,06:51,Makhachkala,RU,Europe,42.98,47.5,84.2,42,24.61,76
892,3674676,2018-06-07,06:51,Mitu,CO,South America,1.2,-70.17,73.37,94,2.35,20
893,2120048,2018-06-07,06:51,Ust-Nera,RU,Europe,64.57,143.24,55.91,43,1.9,0
894,651951,2018-06-07,06:51,Kokkola,FI,Europe,63.84,23.13,46.4,93,8.05,90
895,1282027,2018-06-07,06:51,Male,MV,Asia,4.17,73.51,84.2,79,12.75,90
896,6014443,2018-06-07,06:51,Lac du Bonnet,CA,North America,50.25,-96.06,51.59,79,2.68,0
897,2027806,2018-06-07,06:51,Amazar,RU,Europe,53.86,120.88,72.29,48,3.36,68
898,1630662,2018-06-07,06:51,Praya,ID,Asia,-8.71,116.27,89.6,59,9.17,40
899,1283467,2018-06-07,06:51,Dhangadhi,NP,Asia,28.7,80.57,86.78,73,2.8,80
900,779330,2018-06-07,06:51,Kautokeino,NO,Europe,69.01,23.04,37.55,57,7.83,68
901,915471,2018-06-07,06:51,Kalabo,ZM,Africa,-15.0,22.67,48.53,72,9.95,0
902,5563397,2018-06-07,06:51,Eureka,US,North America,40.8,-124.16,54.64,93,4.7,90
903,1623424,2018-06-07,06:51,Tondano,ID,Asia,1.3,124.91,91.4,55,10.29,40
904,5914132,2018-06-07,06:51,Campbell River,CA,North America,50.02,-125.24,59.0,58,9.17,75
905,516935,2018-06-07,06:51,Novyy Nekouz,RU,Europe,57.91,38.06,50.6,76,12.97,0
906,3948613,2018-06-07,06:51,Acari,PE,South America,-15.44,-74.62,52.13,79,1.01,44
907,3571913,2018-06-07,06:51,Marsh Harbour,BS,North America,26.54,-77.06,80.3,99,15.32,0
908,3527795,2018-06-07,06:51,Escarcega,MX,North America,18.61,-90.75,74.9,93,2.68,48
909,2165087,2018-06-07,06:51,Gold Coast,AU,Oceania,-28.0,153.41,68.0,56,14.99,40
910,3690654,2018-06-07,06:51,Yurimaguas,PE,South America,-5.9,-76.1,70.58,95,1.68,76
911,3454606,2018-06-07,06:51,Arraias,BR,South America,-12.93,-46.94,71.66,75,3.58,76
912,4535961,2018-06-07,06:51,Enid,US,North America,36.4,-97.88,75.81,94,9.17,0
913,175499,2018-06-07,06:51,Nchelenge,ZM,Africa,-9.35,28.74,61.49,59,8.72,0
914,147425,2018-06-07,06:51,Neftcala,AZ,Asia,39.37,49.25,78.86,70,5.26,24
915,3441665,2018-06-07,06:51,Minas,UY,South America,-34.38,-55.24,48.2,87,8.05,0
916,3996234,2018-06-07,06:51,Lazaro Cardenas,MX,North America,28.39,-105.62,75.98,40,8.84,64
917,2409914,2018-06-07,06:51,Bonthe,SL,Africa,7.53,-12.5,75.98,100,1.57,92
918,6144312,2018-06-07,06:51,Sept-Iles,CA,North America,50.2,-66.38,37.4,74,5.82,20
919,581989,2018-06-07,06:51,Andreyevo,RU,Europe,55.95,41.15,52.49,72,9.73,44
920,3467371,2018-06-07,06:51,Capao Bonito,BR,South America,-24.01,-48.35,55.73,98,4.14,92
921,2013375,2018-06-07,06:51,Vitim,RU,Europe,59.44,112.57,72.83,54,3.58,12
922,3980627,2018-06-07,06:51,Valle de Allende,MX,North America,26.94,-105.39,69.41,53,8.28,56
923,2025630,2018-06-07,06:51,Chara,RU,Europe,56.9,118.26,64.37,50,3.36,44
924,1715431,2018-06-07,06:51,Pulo,PH,Asia,14.25,121.13,87.8,84,11.41,75
925,3460530,2018-06-07,06:51,Itubera,BR,South America,-13.73,-39.15,73.1,92,4.03,44
926,1259540,2018-06-07,06:51,Pirawa,IN,Asia,24.16,76.03,101.99,35,11.41,0
927,2414545,2018-06-07,06:51,Tougue,GN,Africa,11.45,-11.68,66.17,98,3.13,0
928,3939761,2018-06-07,06:51,Hualmay,PE,South America,-11.1,-77.61,53.39,99,3.36,0
929,1784131,2018-06-07,06:51,Huilong,CN,Asia,31.15,106.5,89.48,68,4.03,0
930,3653967,2018-06-07,06:51,Muisne,EC,South America,0.61,-80.02,67.43,99,2.91,0
931,2288105,2018-06-07,06:51,Grand-Lahou,CI,Africa,5.24,-5.0,74.81,99,4.14,92
932,5952370,2018-06-07,06:51,Fernie,CA,North America,49.5,-115.06,59.0,44,5.82,20
933,204953,2018-06-07,06:51,Tshikapa,CD,Africa,-6.42,20.79,62.48,77,5.14,0
934,6166142,2018-06-07,06:51,Thunder Bay,CA,North America,48.41,-89.26,57.2,76,5.82,20
935,3981391,2018-06-07,06:51,Tomatlan,MX,North America,19.93,-105.25,73.37,96,2.91,20
936,5601538,2018-06-07,06:51,Moscow,US,North America,46.73,-117.0,63.0,67,2.68,1
937,978895,2018-06-07,06:51,Margate,ZA,Africa,-30.86,30.37,60.95,89,10.18,0
938,5888001,2018-06-07,06:51,Atikokan,CA,North America,48.76,-91.62,51.68,87,2.35,0
939,2138522,2018-06-07,06:51,Poya,NC,Oceania,-21.35,165.16,73.01,100,17.34,100
940,3445459,2018-06-07,06:51,Corrente,BR,South America,-17.45,-44.68,60.68,87,2.68,20
941,3460344,2018-06-07,06:51,Jacobina,BR,South America,-11.19,-40.51,66.53,96,2.91,92
942,88533,2018-06-07,06:51,Awjilah,LY,Africa,29.14,21.3,88.76,20,14.32,0
943,2014808,2018-06-07,06:51,Turka,RU,Europe,52.95,108.22,57.44,62,2.57,0
944,1259429,2018-06-07,06:51,Valpoi,IN,Asia,15.53,74.14,80.12,85,4.47,80
945,2281951,2018-06-07,06:51,Sassandra,CI,Africa,4.95,-6.09,75.98,100,9.95,92
946,522260,2018-06-07,06:51,Nikel,RU,Europe,69.41,30.22,37.4,73,17.22,75
947,2986626,2018-06-07,06:51,Plouzane,FR,Europe,48.38,-4.62,55.76,100,3.36,90
948,1257588,2018-06-07,06:51,Salumbar,IN,Asia,24.14,74.05,102.26,31,14.43,0
949,2063039,2018-06-07,06:51,Port Keats,AU,Oceania,-14.25,129.55,86.78,40,2.13,0
950,3867427,2018-06-07,06:51,Mayor Pablo Lagerenza,PY,South America,-19.93,-60.77,53.93,98,6.49,92
951,1735634,2018-06-07,06:51,Kuching,MY,Asia,1.56,110.34,91.4,63,2.24,75
952,3941492,2018-06-07,06:51,Desaguadero,PE,South America,-16.56,-69.04,33.68,96,2.46,64
953,544084,2018-06-07,06:51,Koslan,RU,Europe,63.46,48.9,45.56,65,5.93,64
954,2960869,2018-06-07,06:51,Youghal,IE,Europe,51.95,-7.85,57.2,87,3.36,75
955,94298,2018-06-07,06:51,Kifri,IQ,Asia,34.69,44.96,98.48,16,4.7,0
956,2435837,2018-06-07,06:51,Beboto,TD,Africa,8.27,16.94,75.08,90,8.84,0
957,2065594,2018-06-07,06:51,Mount Isa,AU,Oceania,-20.73,139.49,78.8,24,9.17,0
958,924492,2018-06-07,06:51,Ntcheu,MW,Africa,-14.82,34.64,56.09,91,7.94,76
959,1273294,2018-06-07,06:51,Dwarka,IN,Asia,28.58,77.04,102.2,40,6.93,0
960,2088659,2018-06-07,06:51,Panguna,PG,Oceania,-6.32,155.48,80.84,82,3.8,12
961,3148133,2018-06-07,06:51,Larsnes,NO,Europe,62.2,5.58,52.97,81,3.36,75
962,933692,2018-06-07,06:51,Kang,BW,Africa,-23.67,22.79,37.91,72,2.57,0
963,211734,2018-06-07,06:51,Lisala,CD,Africa,2.15,21.52,78.59,89,2.24,20
964,5423092,2018-06-07,06:51,Glenwood Springs,US,North America,39.55,-107.33,57.43,25,19.46,1
965,543246,2018-06-07,06:51,Kozhva,RU,Europe,65.11,57.05,46.73,73,8.05,8
966,6112862,2018-06-07,06:51,Preeceville,CA,North America,51.95,-102.67,61.85,43,8.95,0
967,5386035,2018-06-07,06:51,Rancho Palos Verdes,US,North America,33.75,-118.37,61.16,82,3.36,75
968,687191,2018-06-07,06:51,Zhelyabovka,UA,Europe,45.4,34.76,67.88,82,10.51,8
969,2192362,2018-06-07,06:51,Christchurch,NZ,Oceania,-43.53,172.64,50.0,81,11.41,32
970,1486321,2018-06-07,06:51,Yar-Sale,RU,Europe,66.83,70.83,35.48,90,3.24,92
971,3450083,2018-06-07,06:51,Santa Maria,BR,South America,-29.69,-53.81,38.99,86,2.68,64
972,2515151,2018-06-07,06:51,La Union,ES,Europe,37.62,-0.88,59.83,87,5.82,0
973,64013,2018-06-07,06:51,Bosaso,SO,Africa,11.28,49.18,93.2,38,18.34,0
974,2108857,2018-06-07,06:51,Gizo,SB,Oceania,-8.1,156.84,84.53,100,7.83,0
975,2648372,2018-06-07,06:51,Godalming,GB,Europe,51.19,-0.61,55.2,82,8.05,75
976,2070998,2018-06-07,06:51,Geraldton,AU,Oceania,-28.77,114.6,60.8,82,3.36,75
977,3461151,2018-06-07,06:51,Ipameri,BR,South America,-17.72,-48.16,64.28,85,2.68,56
978,2702979,2018-06-07,06:51,Jonkoping,SE,Europe,57.78,14.16,64.4,63,10.29,0
979,6113365,2018-06-07,06:51,Prince George,CA,North America,53.92,-122.75,50.0,66,2.24,1
980,5655240,2018-06-07,06:51,Great Falls,US,North America,47.5,-111.29,61.72,77,5.82,20
981,2476396,2018-06-07,06:51,Timizart,DZ,Africa,36.8,4.25,56.99,87,2.57,32
982,3660689,2018-06-07,06:51,Ambato,EC,South America,-1.24,-78.63,51.8,87,2.24,75
983,1519395,2018-06-07,06:51,Serebryansk,KZ,Asia,49.68,83.3,78.8,44,4.47,12
984,3572462,2018-06-07,06:51,Dunmore Town,BS,North America,25.5,-76.65,80.75,99,13.2,0
985,3662762,2018-06-07,06:51,Porto Velho,BR,South America,-8.75,-63.87,69.8,88,0.89,75
986,3943186,2018-06-07,06:51,Chupaca,PE,South America,-12.06,-75.29,19.82,56,1.68,0
987,567589,2018-06-07,06:51,Chupa,RU,Europe,66.27,33.05,45.38,72,6.04,68
988,143073,2018-06-07,06:51,Ardakan,IR,Asia,32.31,54.02,95.0,12,9.17,0
989,2126682,2018-06-07,06:51,Bilibino,RU,Europe,68.06,166.44,52.31,53,4.59,56
990,3461620,2018-06-07,06:51,Ibia,BR,South America,-19.48,-46.54,63.11,92,4.36,48
991,2100933,2018-06-07,06:51,Ambunti,PG,Oceania,-4.22,142.82,85.25,75,2.8,64
992,1268814,2018-06-07,06:51,Joshimath,IN,Asia,30.57,79.57,42.14,62,0.89,8
993,1497393,2018-06-07,06:51,Nizhnyaya Salda,RU,Europe,58.07,60.71,61.58,65,6.15,88
994,2522857,2018-06-07,06:51,Tricase,IT,Europe,39.93,18.36,73.4,78,4.36,0
995,480122,2018-06-07,06:51,Tutayev,RU,Europe,57.89,39.54,52.04,68,13.2,0
996,3578441,2018-06-07,06:51,Saint-Francois,GP,North America,16.25,-61.27,78.8,83,4.7,40
997,2293342,2018-06-07,06:51,Adzope,CI,Africa,6.11,-3.86,75.08,98,4.14,92
998,710368,2018-06-07,06:51,Chulakivka,UA,Europe,46.36,32.36,63.65,85,9.73,0
999,6149996,2018-06-07,06:51,Smithers,CA,North America,54.78,-127.17,48.2,81,4.7,90
1000,549617,2018-06-07,06:51,Khomutovka,RU,Europe,51.92,34.56,53.93,69,4.59,88
1001,3168231,2018-06-07,06:51,San Giovanni Valdarno,IT,Europe,43.56,11.53,69.8,77,2.24,40
1002,632542,2018-06-07,06:51,Vammala,FI,Europe,61.34,22.91,50.11,57,11.41,0
1003,2394819,2018-06-07,06:51,Cotonou,BJ,Africa,6.37,2.43,75.2,88,5.82,40
1004,1201753,2018-06-07,06:51,Hajiganj,BD,Asia,23.25,90.85,89.75,88,3.91,8
1005,117656,2018-06-07,06:51,Salmas,IR,Asia,38.2,44.77,76.91,26,4.7,0
1006,2644037,2018-06-07,06:51,Llangefni,GB,Europe,53.26,-4.31,60.8,72,8.05,0
1007,2037485,2018-06-07,06:51,Erenhot,CN,Asia,43.65,111.97,67.34,80,9.73,44
1008,1734240,2018-06-07,06:51,Labuan,MY,Asia,5.33,115.2,91.65,75,6.93,75
1009,2022773,2018-06-07,06:51,Khandyga,RU,Europe,62.65,135.58,67.43,35,2.57,56
1010,2686469,2018-06-07,06:51,Ornskoldsvik,SE,Europe,63.29,18.72,54.59,58,16.11,75
1011,2387435,2018-06-07,06:51,Damara,CF,Africa,4.96,18.7,71.6,94,4.7,0
1012,217637,2018-06-07,06:51,Businga,CD,Africa,3.34,20.89,75.62,89,3.13,0
1013,955313,2018-06-07,06:51,Siyabuswa,ZA,Africa,-25.11,29.06,41.33,74,2.68,0
1014,2180393,2018-06-07,06:51,Waihi Beach,NZ,Oceania,-37.4,175.93,48.26,75,10.4,36
1015,151610,2018-06-07,06:51,Ngorongoro,TZ,Africa,-3.24,35.49,59.15,85,3.36,0
1016,1058381,2018-06-07,06:51,Morondava,MG,Africa,-20.3,44.28,70.58,97,1.9,32
1017,3695844,2018-06-07,06:51,Lagunas,PE,South America,-5.23,-75.68,68.87,94,2.13,0
1018,3435261,2018-06-07,06:51,Concordia,AR,South America,-31.4,-58.02,46.01,100,11.41,44
1019,344420,2018-06-07,06:51,Adwa,ET,Africa,14.16,38.9,80.75,24,2.46,56
1020,3452029,2018-06-07,06:51,Quijingue,BR,South America,-10.75,-39.21,64.28,96,3.69,12
1021,4957320,2018-06-07,06:51,Bar Harbor,US,North America,44.39,-68.2,51.6,93,4.7,90
1022,1337607,2018-06-07,06:51,Kudahuvadhoo,MV,Asia,2.67,72.89,83.18,100,9.4,76
1023,933726,2018-06-07,06:51,Tshane,BW,Africa,-24.02,21.87,36.11,69,2.91,0
1024,461699,2018-06-07,06:51,Sasovo,RU,Europe,54.35,41.93,55.46,72,7.94,0
1025,4019042,2018-06-07,06:51,Ajuchitlan,MX,North America,20.72,-100.02,52.58,80,2.68,0
1026,2685750,2018-06-07,06:51,Ostersund,SE,Europe,63.18,14.64,48.2,70,20.8,40
1027,1508260,2018-06-07,06:51,Novobirilyussy,RU,Europe,56.95,90.69,69.59,62,4.03,0
1028,1164069,2018-06-07,06:51,Talagang,PK,Asia,32.92,72.41,103.43,39,5.26,20
1029,1515029,2018-06-07,06:51,Ulaangom,MN,Asia,49.98,92.07,67.16,19,2.35,64
1030,1609043,2018-06-07,06:51,Lom Sak,TH,Asia,16.78,101.24,89.6,79,6.93,75
1031,2805597,2018-06-07,06:51,Wurzen,DE,Europe,51.37,12.74,62.6,55,6.93,0
1032,1685422,2018-06-07,06:51,Sulangan,PH,Asia,11.14,123.72,85.25,100,17.0,88
1033,2662689,2018-06-07,06:51,Visby,SE,Europe,57.64,18.3,62.6,63,6.93,0
1034,3359736,2018-06-07,06:51,Vredendal,ZA,Africa,-31.68,18.49,42.77,79,3.24,20
1035,3381538,2018-06-07,06:51,Grand-Santi,GF,South America,4.27,-54.38,74.9,92,3.02,92
1036,371745,2018-06-07,06:51,Kutum,SD,Africa,14.2,24.66,77.51,14,12.19,0
1037,2448245,2018-06-07,06:51,Abalak,NE,Africa,15.46,6.28,78.77,66,10.29,8
1038,2018735,2018-06-07,06:51,Nyurba,RU,Europe,63.29,118.35,81.65,22,8.39,0
1039,1152194,2018-06-07,06:51,Mae Sai,TH,Asia,20.43,99.88,89.6,66,2.01,40
1040,1512019,2018-06-07,06:51,Aksarka,RU,Europe,66.56,67.8,37.91,100,3.58,88
1041,1260771,2018-06-07,06:51,Palasa,IN,Asia,18.77,84.42,87.86,87,15.21,20
1042,2180991,2018-06-07,06:51,Tolaga Bay,NZ,Oceania,-38.37,178.3,47.45,93,17.11,100
1043,1688696,2018-06-07,06:51,San Policarpo,PH,Asia,12.18,125.51,82.91,95,19.69,88
1044,6089179,2018-06-07,06:52,Normandin,CA,North America,48.84,-72.53,57.2,58,12.75,90
1045,5914894,2018-06-07,06:52,Canmore,CA,North America,51.09,-115.35,53.6,50,5.82,90
1046,3839307,2018-06-07,06:52,Rawson,AR,South America,-43.3,-65.11,31.79,86,10.85,0
1047,1064275,2018-06-07,06:52,Ihosy,MG,Africa,-22.4,46.13,58.61,86,9.4,68
1048,1222396,2018-06-07,06:52,Kuah,MY,Asia,6.33,99.84,90.64,70,5.82,75
1049,6115187,2018-06-07,06:52,Quesnel,CA,North America,52.98,-122.49,57.2,50,3.36,1
1050,5887798,2018-06-07,06:52,Assiniboia,CA,North America,49.63,-105.99,62.75,38,1.23,64
1051,575480,2018-06-07,06:52,Bogovarovo,RU,Europe,58.98,47.02,50.51,63,4.7,8
1052,1505579,2018-06-07,06:52,Inta,RU,Europe,66.04,60.13,45.56,71,7.49,12
1053,8010683,2018-06-07,06:52,Porto Santo,PT,Europe,33.07,-16.34,64.4,93,5.82,40
1054,1024552,2018-06-07,06:52,Xai-Xai,MZ,Africa,-25.04,33.64,70.49,100,12.64,92
1055,3576994,2018-06-07,06:52,Cockburn Town,TC,North America,21.46,-71.14,80.3,98,14.43,88
1056,2012956,2018-06-07,06:52,Yerbogachen,RU,Europe,61.28,108.01,71.21,53,3.69,12
1057,4798308,2018-06-07,06:52,Beckley,US,North America,37.78,-81.19,52.45,93,2.01,1
1058,3033391,2018-06-07,06:52,Bergerac,FR,Europe,44.85,0.49,60.8,93,2.24,90
1059,5223593,2018-06-07,06:52,Newport,US,North America,41.49,-71.31,52.14,93,7.49,40
1060,3652065,2018-06-07,06:52,Esmeraldas,EC,South America,-1.87,-79.8,73.4,78,11.41,75
1061,6690298,2018-06-07,06:52,Saint-Louis,RE,Africa,-21.27,55.42,82.4,58,5.82,0
1062,610298,2018-06-07,06:52,Beyneu,KZ,Asia,45.32,55.19,88.76,36,12.64,0
1063,2027296,2018-06-07,06:52,Aykhal,RU,Europe,65.95,111.51,68.51,67,8.61,36
1064,2142316,2018-06-07,06:52,Yeppoon,AU,Oceania,-23.13,150.74,77.0,41,9.17,0
1065,2377450,2018-06-07,06:52,Nouakchott,MR,Africa,18.08,-15.98,69.95,94,3.24,36
1066,73560,2018-06-07,06:52,Lahij,YE,Asia,13.06,44.88,88.76,61,6.38,20
1067,916246,2018-06-07,06:52,Kabompo,ZM,Africa,-13.6,24.21,47.63,71,11.41,0
1068,3573899,2018-06-07,06:52,Point Fortin,TT,North America,10.16,-61.68,77.0,88,3.36,20
1069,3545841,2018-06-07,06:52,Nuevitas,CU,North America,21.55,-77.27,75.2,100,2.24,20
1070,2186111,2018-06-07,06:52,Ngunguru,NZ,Oceania,-35.62,174.5,55.19,100,24.38,0
1071,1052944,2018-06-07,06:52,Angoche,MZ,Africa,-16.23,39.91,75.17,100,15.21,92
1072,3665098,2018-06-07,06:52,Barcelos,BR,South America,-0.97,-62.93,73.55,97,2.46,88
1073,566456,2018-06-07,06:52,Dergachi,RU,Europe,51.24,48.77,59.78,62,12.75,0
1074,4465088,2018-06-07,06:52,Elizabeth City,US,North America,36.3,-76.22,64.74,88,7.94,90
1075,2345521,2018-06-07,06:52,Damaturu,NG,Africa,11.75,11.96,76.88,68,10.29,0
1076,1127547,2018-06-07,06:52,Sangin,AF,Asia,32.07,64.85,104.87,13,12.97,0
1077,1484846,2018-06-07,06:52,Andijan,UZ,Asia,40.76,72.37,89.6,29,4.7,0
1078,520552,2018-06-07,06:52,Nizhniy Odes,RU,Europe,63.64,54.86,48.53,66,3.69,20
1079,654441,2018-06-07,06:52,Kangasala,FI,Europe,61.46,24.07,47.23,57,11.41,0
1080,2120047,2018-06-07,06:52,Ust-Omchug,RU,Europe,61.13,149.63,55.28,27,3.69,92
1081,1709886,2018-06-07,06:52,Kabugao,PH,Asia,18.02,121.18,78.41,95,3.13,80
1082,1258213,2018-06-07,06:52,Renigunta,IN,Asia,13.64,79.51,91.37,65,7.27,92
1083,3879627,2018-06-07,06:52,Molina,CL,South America,-35.11,-71.28,42.8,87,4.7,90
1084,2016307,2018-06-07,06:52,Solnechnyy,RU,Europe,50.72,136.64,46.82,99,7.27,92
1085,2779685,2018-06-07,06:52,Feldbach,AT,Europe,46.95,15.89,66.2,88,3.36,75
1086,2025256,2018-06-07,06:52,Chumikan,RU,Europe,54.72,135.31,42.68,79,8.16,88
1087,3456160,2018-06-07,06:52,Olinda,BR,South America,-22.82,-43.41,70.72,88,4.7,75
1088,3901903,2018-06-07,06:52,Uyuni,BO,South America,-20.46,-66.82,25.22,54,6.15,20
1089,4760059,2018-06-07,06:52,Fredericksburg,US,North America,38.3,-77.46,62.28,82,4.25,90
1090,3984571,2018-06-07,06:52,Santa catarina de Tepehuanes,MX,North America,25.34,-105.72,69.23,34,3.91,100
1091,1516438,2018-06-07,06:52,Zyryanovsk,KZ,Asia,49.74,84.27,74.54,45,2.46,12
1092,1806466,2018-06-07,06:52,Guangyuan,CN,Asia,32.43,105.86,82.19,33,5.14,56
1093,6088469,2018-06-07,06:52,Nipawin,CA,North America,53.36,-104.02,53.6,76,6.93,1
1094,507291,2018-06-07,06:52,Polessk,RU,Europe,54.86,21.11,59.0,62,6.71,0
1095,2052479,2018-06-07,06:52,Zhuhai,CN,Asia,40.71,112.04,77.0,20,11.18,40
1096,3395981,2018-06-07,06:52,Maceio,BR,South America,-9.67,-35.74,71.6,94,2.24,90
1097,3032556,2018-06-07,06:52,Biscarrosse,FR,Europe,44.41,-1.18,61.61,100,5.82,40
1098,1175712,2018-06-07,06:52,Jiwani,PK,Asia,25.05,61.74,93.98,65,8.95,0
1099,934479,2018-06-07,06:52,Grand Gaube,MU,Africa,-20.01,57.66,82.4,65,14.99,40
1100,3899539,2018-06-07,06:52,Antofagasta,CL,South America,-23.65,-70.4,53.6,81,2.24,20
1101,1513990,2018-06-07,06:52,Gazli,UZ,Asia,40.13,63.45,103.97,17,9.73,0
1102,64814,2018-06-07,06:52,Bandarbeyla,SO,Africa,9.49,50.81,78.41,83,25.5,0
1103,1495812,2018-06-07,06:52,Ous,RU,Europe,60.91,61.52,56.63,58,6.49,76
1104,1539210,2018-06-07,06:52,Purpe,RU,Europe,64.48,76.69,76.61,68,18.01,0
1105,2158767,2018-06-07,06:52,Mareeba,AU,Oceania,-16.99,145.42,75.2,57,19.46,20
1106,3374218,2018-06-07,06:52,Santa Maria,CV,Africa,16.6,-22.9,71.6,88,11.41,40
1107,164947,2018-06-07,06:52,Salamiyah,SY,Asia,35.01,37.05,85.52,22,3.58,0
1108,4863349,2018-06-07,06:52,Keokuk,US,North America,40.4,-91.39,72.52,73,11.41,1
1109,1587923,2018-06-07,06:52,Bien Hoa,VN,Asia,10.95,106.82,93.2,63,13.87,40
1110,3924908,2018-06-07,06:52,Pimenta Bueno,BR,South America,-11.68,-61.19,65.18,94,2.35,0
1111,469809,2018-06-07,06:52,Yadrin,RU,Europe,55.94,46.2,52.4,82,8.72,0
1112,4780577,2018-06-07,06:52,Pulaski,US,North America,37.05,-80.78,54.3,87,1.9,1
1113,3145614,2018-06-07,06:52,Storforshei,NO,Europe,66.4,14.52,42.8,70,17.22,75
1114,2014836,2018-06-07,06:52,Tupik,RU,Europe,54.43,119.94,72.56,50,3.69,44
1115,3157897,2018-06-07,06:52,Leira,NO,Europe,60.97,9.29,51.23,62,2.57,0
1116,212360,2018-06-07,06:52,Kongolo,CD,Africa,-5.39,27.0,70.31,49,5.14,0
1117,728674,2018-06-07,06:52,Obzor,BG,Europe,42.82,27.88,73.4,83,5.82,40
1118,3683538,2018-06-07,06:52,El Paso,CO,South America,9.66,-73.75,74.45,99,1.79,48
1119,3569136,2018-06-07,06:52,Alquizar,CU,North America,22.81,-82.59,71.6,100,1.12,20
1120,215771,2018-06-07,06:52,Isiro,CD,Africa,2.77,27.62,74.99,80,2.91,12
1121,3437342,2018-06-07,06:52,General Elizardo Aquino,PY,South America,-24.45,-56.9,55.19,84,5.59,100
1122,4470244,2018-06-07,06:52,Havelock,US,North America,34.88,-76.9,70.39,94,4.7,20
1123,1488414,2018-06-07,06:52,Urengoy,RU,Europe,65.96,78.37,46.73,76,5.93,8
1124,2034400,2018-06-07,06:52,Tongliao,CN,Asia,43.61,122.27,82.01,52,4.36,0
1125,4791259,2018-06-07,06:52,Virginia Beach,US,North America,36.85,-75.98,64.42,88,7.94,1
1126,2269514,2018-06-07,06:52,Castelo Branco,PT,Europe,39.82,-7.5,53.03,100,3.69,88
1127,3405339,2018-06-07,06:52,Bom Jardim,BR,South America,-7.8,-35.59,70.49,93,5.14,88
1128,167357,2018-06-07,06:52,Manbij,SY,Asia,36.53,37.96,84.2,26,1.12,0
1129,5793609,2018-06-07,06:52,Elk Plain,US,North America,47.04,-122.37,57.52,82,3.13,20
1130,1160571,2018-06-07,06:52,Khash,IR,Asia,28.22,61.21,99.38,10,15.32,0
1131,3347939,2018-06-07,06:52,Lobito,AO,Africa,-12.35,13.55,57.17,59,6.15,0
1132,1504382,2018-06-07,06:52,Kargasok,RU,Europe,59.06,80.87,80.3,48,4.14,24
1133,1831112,2018-06-07,06:52,Kampot,KH,Asia,10.62,104.18,89.66,67,11.74,76
1134,1805857,2018-06-07,06:52,Jieshi,CN,Asia,22.82,115.83,80.66,99,18.79,92
1135,3837056,2018-06-07,06:52,San Luis,AR,South America,-33.3,-66.34,28.37,68,2.68,0
1136,3421319,2018-06-07,06:52,Nuuk,GL,North America,64.17,-51.74,37.4,74,13.87,44
1137,3460513,2018-06-07,06:52,Iturama,BR,South America,-19.73,-50.2,65.09,92,1.45,32
1138,3931470,2018-06-07,06:52,Puerto Maldonado,PE,South America,-12.59,-69.19,66.98,99,1.79,92
1139,2208332,2018-06-07,06:52,Opotiki,NZ,Oceania,-38.01,177.29,53.39,100,13.53,48
1140,5088597,2018-06-07,06:52,Lebanon,US,North America,43.64,-72.25,49.71,87,1.9,75
1141,778707,2018-06-07,06:52,Mehamn,NO,Europe,71.03,27.85,37.4,100,18.34,75
1142,5229794,2018-06-07,06:52,Mitchell,US,North America,43.71,-98.03,68.0,68,14.99,75
1143,2926271,2018-06-07,06:52,Flensburg,DE,Europe,54.78,9.43,64.99,52,10.29,20
1144,1505991,2018-06-07,06:52,Igarka,RU,Europe,67.47,86.57,45.83,76,19.24,0
1145,2521582,2018-06-07,06:52,Arona,ES,Europe,28.1,-16.68,64.4,82,1.12,20
1146,3655117,2018-06-07,06:52,La Mana,EC,South America,-0.93,-79.22,51.8,87,2.24,75
1147,5228673,2018-06-07,06:52,Huron,US,North America,44.36,-98.21,66.58,72,9.17,90
1148,1517323,2018-06-07,06:52,Zhanakorgan,KZ,Asia,43.91,67.25,95.96,25,5.03,12
1149,3648559,2018-06-07,06:52,Barcelona,VE,South America,10.14,-64.69,76.79,100,5.7,8
1150,1065158,2018-06-07,06:52,Farafangana,MG,Africa,-22.82,47.83,71.03,100,9.95,0
1151,105299,2018-06-07,06:52,Jizan,SA,Asia,16.89,42.56,95.0,59,16.11,40
1152,3435038,2018-06-07,06:52,Dolores,AR,South America,-36.31,-57.68,43.76,86,13.65,44
1153,2315026,2018-06-07,06:52,Kasongo-Lunda,CD,Africa,-6.48,16.82,60.77,83,3.24,0
1154,2179825,2018-06-07,06:52,Waitati,NZ,Oceania,-45.75,170.57,43.76,90,14.43,0
1155,1673820,2018-06-07,06:52,Kaohsiung,TW,Asia,22.62,120.31,90.43,59,11.41,75
1156,1800065,2018-06-07,06:52,Nangong,CN,Asia,37.36,115.37,92.99,40,9.62,44
1157,3698359,2018-06-07,06:52,Chicama,PE,South America,-7.84,-79.15,64.4,88,3.36,90
1158,605155,2018-06-07,06:52,Kiruna,SE,Europe,67.86,20.23,35.6,80,9.17,40
1159,5384339,2018-06-07,06:52,Port Hueneme,US,North America,34.15,-119.2,58.69,82,6.93,1
1160,3374336,2018-06-07,06:52,Porto Novo,CV,Africa,17.02,-25.06,71.6,83,11.41,20
1161,577206,2018-06-07,06:52,Berezniki,RU,Europe,59.41,56.8,47.9,100,12.19,92
1162,1521315,2018-06-07,06:52,Lisakovsk,KZ,Asia,52.55,62.49,79.49,45,3.69,12
1163,504341,2018-06-07,06:52,Pskov,RU,Europe,57.82,28.33,51.8,62,11.18,0
1164,218680,2018-06-07,06:52,Boende,CD,Africa,-0.28,20.88,75.26,79,2.68,12
1165,3430443,2018-06-07,06:52,Necochea,AR,South America,-38.55,-58.74,49.25,98,15.99,88
1166,5830062,2018-06-07,06:52,Laramie,US,North America,41.31,-105.59,58.5,76,11.41,1
1167,5509851,2018-06-07,06:52,Pahrump,US,North America,36.21,-115.98,81.41,8,3.58,1
1168,7626370,2018-06-07,06:52,Bud,NO,Europe,62.91,6.91,51.19,76,5.82,75
1169,3467512,2018-06-07,06:52,Cangucu,BR,South America,-31.39,-52.68,38.63,80,9.17,12
1170,3904890,2018-06-07,06:52,Santa Rosa,BO,South America,-20.7,-64.83,40.25,40,3.24,24
1171,140463,2018-06-07,06:52,Birjand,IR,Asia,32.86,59.22,95.0,8,6.93,0
1172,2654970,2018-06-07,06:52,Brae,GB,Europe,60.4,-1.35,51.03,81,9.17,40
1173,1606147,2018-06-07,06:52,Songkhla,TH,Asia,7.2,100.6,90.59,62,6.93,20
1174,7671223,2018-06-07,06:52,Kloulklubed,PW,Oceania,7.04,134.26,85.3,79,8.05,90
1175,916668,2018-06-07,06:52,Isoka,ZM,Africa,-10.15,32.64,54.56,85,9.62,24
1176,1000501,2018-06-07,06:52,Grahamstown,ZA,Africa,-33.31,26.53,59.78,30,8.61,12
1177,1494941,2018-06-07,06:52,Pirovskoye,RU,Europe,57.63,92.27,69.68,49,4.14,0
1178,2127515,2018-06-07,06:52,Wakkanai,JP,Asia,45.41,141.67,55.4,87,5.82,75
1179,2033135,2018-06-07,06:52,Zhengjiatun,CN,Asia,43.51,123.51,80.93,53,4.59,64
1180,3664539,2018-06-07,06:52,Coari,BR,South America,-4.09,-63.14,74.18,93,5.37,32
1181,255036,2018-06-07,06:52,Platanos,GR,Europe,35.47,23.6,82.4,45,4.7,0
1182,6144602,2018-06-07,06:52,Sexsmith,CA,North America,55.35,-118.78,48.2,61,4.7,40
1183,3151452,2018-06-07,06:52,Hundorp,NO,Europe,61.55,9.94,53.21,53,3.36,0
1184,3919968,2018-06-07,06:52,Cochabamba,BO,South America,-17.39,-66.16,50.0,71,2.24,40
1185,2017842,2018-06-07,06:52,Pokosnoye,RU,Europe,55.53,101.05,60.59,60,2.01,88
1186,1024312,2018-06-07,06:52,Mocuba,MZ,Africa,-16.84,36.99,62.93,98,8.61,92
1187,2184707,2018-06-07,06:52,Wanaka,NZ,Oceania,-44.7,169.14,32.87,83,2.13,0
1188,292968,2018-06-07,06:52,Abu Dhabi,AE,Asia,24.47,54.37,105.01,31,5.82,20
1189,2019135,2018-06-07,06:52,Nizhniy Kuranakh,RU,Europe,58.84,125.49,52.31,82,7.38,92
1190,1835848,2018-06-07,06:52,Seoul,KR,Asia,37.57,126.98,78.37,51,5.82,0
1191,1271215,2018-06-07,06:52,Gidam,IN,Asia,18.98,81.4,89.66,66,7.38,0
1192,1650064,2018-06-07,06:52,Barabai,ID,Asia,-2.59,115.38,89.3,69,1.9,12
1193,3466696,2018-06-07,06:52,Catalao,BR,South America,-18.17,-47.95,64.28,85,2.68,56
1194,6111867,2018-06-07,06:52,Port Hawkesbury,CA,North America,45.62,-61.36,39.2,100,4.7,75
1195,3455568,2018-06-07,06:52,Padre Paraiso,BR,South America,-17.07,-41.48,65.18,95,4.81,32
1196,1730272,2018-06-07,06:52,Araceli,PH,Asia,10.55,119.99,83.36,100,13.31,36
1197,2170577,2018-06-07,06:52,Cooma,AU,Oceania,-36.24,149.13,51.86,72,7.27,24
1198,1140026,2018-06-07,06:52,Herat,AF,Asia,34.35,62.22,96.8,28,9.17,0
1199,3220887,2018-06-07,06:52,Brandenburg,DE,Europe,48.24,10.06,64.42,88,4.7,75
1200,2074113,2018-06-07,06:52,Collie,AU,Oceania,-33.36,116.15,55.28,86,6.04,32
1201,4033356,2018-06-07,06:52,Tiarei,PF,Oceania,-17.53,-149.33,77.0,83,3.36,40
1202,713389,2018-06-07,06:52,Andrushivka,UA,Europe,50.03,29.02,61.13,59,5.14,8
1203,2449067,2018-06-07,06:52,Timbuktu,ML,Africa,16.77,-3.01,79.49,25,8.61,8
1204,1516905,2018-06-07,06:52,Taraz,KZ,Asia,42.89,71.39,91.4,19,4.47,0
1205,1163054,2018-06-07,06:52,Turbat,PK,Asia,26.0,63.05,95.51,57,7.83,0
1206,477940,2018-06-07,06:52,Ust-Tsilma,RU,Europe,65.44,52.15,46.19,65,6.71,48
1207,4870380,2018-06-07,06:52,Ottumwa,US,North America,41.02,-92.41,69.55,82,5.82,1
1208,1488774,2018-06-07,06:52,Tyukhtet,RU,Europe,56.54,89.31,71.39,78,4.59,12
1209,3724696,2018-06-07,06:52,Gonaives,HT,North America,19.45,-72.68,75.35,89,3.02,44
1210,893485,2018-06-07,06:52,Chiredzi,ZW,Africa,-21.05,31.67,59.42,92,4.25,80
1211,3893656,2018-06-07,06:52,Copiapo,CL,South America,-27.37,-70.33,53.6,81,8.05,0
1212,2993358,2018-06-07,06:52,Mondeville,FR,Europe,49.18,-0.32,60.84,93,1.12,90
1213,3650721,2018-06-07,06:52,Tena,EC,South America,-0.99,-77.82,55.37,94,2.13,0
1214,2035669,2018-06-07,06:52,Nancha,CN,Asia,47.14,129.26,63.47,74,2.91,76
1215,141665,2018-06-07,06:52,Bandar-e Lengeh,IR,Asia,26.56,54.88,95.0,56,13.87,0
1216,2019867,2018-06-07,06:52,Mokhsogollokh,RU,Europe,61.4,128.95,62.48,64,8.95,44
1217,204283,2018-06-07,06:52,Watsa,CD,Africa,3.04,29.53,72.56,85,3.91,76
1218,2395317,2018-06-07,06:52,Banikoara,BJ,Africa,11.3,2.44,76.16,90,4.59,8
1219,3391287,2018-06-07,06:52,Prainha,BR,South America,-1.8,-53.48,74.81,100,3.02,24
1220,2347059,2018-06-07,06:52,Birnin Kebbi,NG,Africa,12.45,4.2,75.53,88,4.92,0
1221,1047660,2018-06-07,06:52,Cuamba,MZ,Africa,-14.8,36.54,59.69,87,7.05,44
1222,1489401,2018-06-07,06:52,Toora-Khem,RU,Europe,52.47,96.11,67.16,47,3.13,8
1223,3347353,2018-06-07,06:52,Menongue,AO,Africa,-14.66,17.68,47.81,63,5.37,0
1224,216404,2018-06-07,06:52,Gbadolite,CD,Africa,4.28,21.0,76.79,88,3.58,0
1225,1695555,2018-06-07,06:52,Pandan,PH,Asia,11.72,122.09,78.68,100,14.65,92
1226,2013921,2018-06-07,06:53,Ust-Kuyga,RU,Europe,70.0,135.55,63.83,57,11.18,0
1227,2984701,2018-06-07,06:53,Quimper,FR,Europe,48.0,-4.1,56.28,93,5.82,90
1228,3465164,2018-06-07,06:53,Cristalina,BR,South America,-16.77,-47.61,66.35,81,3.02,36
1229,1797676,2018-06-07,06:53,Liusha,CN,Asia,27.21,108.59,82.64,52,8.16,0
1230,58933,2018-06-07,06:53,Garowe,SO,Africa,8.41,48.48,86.15,42,19.24,24
1231,3580477,2018-06-07,06:53,West Bay,KY,North America,19.37,-81.42,81.56,100,15.66,76
1232,5864145,2018-06-07,06:53,Homer,US,North America,59.64,-151.54,49.15,87,10.29,1
1233,2460596,2018-06-07,06:53,Bamako,ML,Africa,12.65,-8.0,78.8,74,3.36,20
1234,1508517,2018-06-07,06:53,Bystryy Istok,RU,Europe,52.37,84.39,81.83,36,13.09,0
1235,540761,2018-06-07,06:53,Kropotkin,RU,Europe,45.43,40.58,67.79,72,9.06,44
1236,2038300,2018-06-07,06:53,Benxi,CN,Asia,41.29,123.76,77.0,61,11.18,20
1237,2122262,2018-06-07,06:53,Palana,RU,Europe,59.08,159.95,50.96,56,5.93,20
1238,2986732,2018-06-07,06:53,Ploemeur,FR,Europe,47.73,-3.43,57.99,93,5.82,75
1239,1263751,2018-06-07,06:53,Mangrol,IN,Asia,25.33,76.51,101.63,47,5.37,32
1240,1037125,2018-06-07,06:53,Montepuez,MZ,Africa,-13.13,39.0,64.1,73,13.2,0
1241,688532,2018-06-07,06:53,Yalta,UA,Europe,46.96,37.27,62.57,100,16.89,0
1242,2036892,2018-06-07,06:53,Hohhot,CN,Asia,40.81,111.65,77.0,20,11.18,40
1243,5785243,2018-06-07,06:53,Aberdeen,US,North America,46.98,-123.82,55.87,82,5.82,90
1244,3623008,2018-06-07,06:53,Los Chiles,CR,North America,11.04,-84.71,75.98,95,2.57,88
1245,3469437,2018-06-07,06:53,Bom Jesus da Lapa,BR,South America,-13.25,-43.41,66.98,81,7.61,0
1246,2429344,2018-06-07,06:53,Kyabe,TD,Africa,9.45,18.94,82.91,62,5.59,0
1247,2185537,2018-06-07,06:53,Kawhia,NZ,Oceania,-38.07,174.82,54.29,100,23.82,80
1248,3450144,2018-06-07,06:53,Santa Luzia,BR,South America,-19.77,-43.85,59.0,93,2.13,0
1249,1505965,2018-06-07,06:53,Igrim,RU,Europe,63.19,64.42,48.98,74,3.58,92
1250,2094027,2018-06-07,06:53,Kieta,PG,Oceania,-6.22,155.63,80.93,96,4.25,64
1251,525426,2018-06-07,06:53,Sobolevo,RU,Europe,54.43,31.9,53.93,87,6.15,0
1252,463355,2018-06-07,06:53,Zheleznodorozhnyy,RU,Europe,55.75,38.0,51.8,57,11.18,40
1253,3007609,2018-06-07,06:53,Lannion,FR,Europe,48.73,-3.46,55.4,93,4.7,90
1254,5887916,2018-06-07,06:53,Athabasca,CA,North America,54.72,-113.29,52.31,50,5.93,0
1255,2017409,2018-06-07,06:53,Romny,RU,Europe,50.73,129.29,68.15,82,6.04,20
1256,4334720,2018-06-07,06:53,Natchitoches,US,North America,31.76,-93.09,68.72,100,2.57,1
1257,5655959,2018-06-07,06:53,Hamilton,US,North America,46.25,-114.15,49.61,77,1.9,0
1258,3420768,2018-06-07,06:53,Qasigiannguit,GL,North America,68.82,-51.19,42.8,70,14.99,36
